{
  "username": "CarolinaCoopers",
  "lang": "en",
  "mapUrl": "http://www.tripadvisor.com/TravelMap-a_uid.6A896339BB257F9A93B0D79698D863DD",
  "avatar": "http://media-cdn.tripadvisor.com/media/photo-l/07/46/ef/37/carolinacoopers.jpg",
  "stats": {
    "country": 54,
    "total": 742,
    "city": 707,
    "fave": 9,
    "want": 38
  },
  "places": [
    {
      "city": "Athens",
      "county": "GA",
      "iso": "",
      "flags": [
        "been"
      ],
      "lat": 33.959755,
      "lng": -83.377754,
      "name": "Athens, GA, USA"
    },
    {
      "city": "Lynchburg",
      "county": "VA",
      "iso": "",
      "flags": [
        "been"
      ],
      "lat": 37.414604,
      "lng": -79.14074,
      "name": "Lynchburg, VA, USA"
    },
    {
      "city": "Ocho Rios",
      "county": "Jamaica",
      "iso": "JM",
      "flags": [
        "been"
      ],
      "lat": 18.409464,
      "lng": -77.10029,
      "name": "Ocho Rios, Jamaica"
    },
    {
      "city": "Corolla",
      "county": "NC",
      "iso": "",
      "flags": [
        "been"
      ],
      "lat": 36.336388,
      "lng": -75.814255,
      "name": "Corolla, NC, USA"
    },
    {
      "city": "Diamondhead",
      "county": "MS",
      "iso": "",
      "flags": [
        "been"
      ],
      "lat": 30.388542,
      "lng": -89.35933,
      "name": "Diamondhead, MS, USA"
    },
    {
      "city": "Canton",
      "county": "OH",
      "iso": "",
      "flags": [
        "been"
      ],
      "lat": 40.79895,
      "lng": -81.37845,
      "name": "Canton, OH, USA"
    },
    {
      "city": "Hebron",
      "county": "KY",
      "iso": "",
      "flags": [
        "been"
      ],
      "lat": 39.078026,
      "lng": -84.7071,
      "name": "Hebron, KY, USA"
    },
    {
      "city": "North Caicos",
      "county": "Turks and Caicos",
      "iso": "",
      "flags": [
        "been"
      ],
      "lat": 21.867346,
      "lng": -71.9757,
      "name": "North Caicos, Turks and Caicos"
    },
    {
      "city": "Winter Park",
      "county": "CO",
      "iso": "",
      "flags": [
        "been"
      ],
      "lat": 39.920372,
      "lng": -105.78742,
      "name": "Winter Park, CO, USA"
    },
    {
      "city": "Denton",
      "county": "TX",
      "iso": "",
      "flags": [
        "been"
      ],
      "lat": 33.218616,
      "lng": -97.136566,
      "name": "Denton, TX, USA"
    },
    {
      "city": "Augusta",
      "county": "GA",
      "iso": "",
      "flags": [
        "been"
      ],
      "lat": 33.47522,
      "lng": -81.98217,
      "name": "Augusta, GA, USA"
    },
    {
      "city": "Puerto Rico",
      "county": "Caribbean",
      "iso": "",
      "flags": [
        "been"
      ],
      "lat": 18.23457,
      "lng": -66.48102,
      "name": "Puerto Rico, Caribbean"
    },
    {
      "city": "Monterey",
      "county": "CA",
      "iso": "",
      "flags": [
        "been"
      ],
      "lat": 36.600204,
      "lng": -121.89481,
      "name": "Monterey, CA, USA"
    },
    {
      "city": "Fort Worth",
      "county": "TX",
      "iso": "",
      "flags": [
        "been"
      ],
      "lat": 32.74796,
      "lng": -97.32347,
      "name": "Fort Worth, TX, USA"
    },
    {
      "city": "DeSoto",
      "county": "TX",
      "iso": "",
      "flags": [
        "been"
      ],
      "lat": 32.58967,
      "lng": -96.85473,
      "name": "DeSoto, TX, USA"
    },
    {
      "city": "Runaway Bay",
      "county": "Jamaica",
      "iso": "JM",
      "flags": [
        "want"
      ],
      "lat": 18.463856,
      "lng": -77.32857,
      "name": "Runaway Bay, Jamaica"
    },
    {
      "city": "Middle Caicos",
      "county": "Turks and Caicos",
      "iso": "",
      "flags": [
        "been"
      ],
      "lat": 21.794552,
      "lng": -71.738525,
      "name": "Middle Caicos, Turks and Caicos"
    },
    {
      "city": "Concord",
      "county": "NC",
      "iso": "",
      "flags": [
        "been"
      ],
      "lat": 35.412403,
      "lng": -80.58576,
      "name": "Concord, NC, USA"
    },
    {
      "city": "Edinburgh",
      "county": "IN",
      "iso": "",
      "flags": [
        "been"
      ],
      "lat": 39.351883,
      "lng": -85.97081,
      "name": "Edinburgh, IN, USA"
    },
    {
      "city": "Erlanger",
      "county": "KY",
      "iso": "",
      "flags": [
        "been"
      ],
      "lat": 39.01732,
      "lng": -84.599815,
      "name": "Erlanger, KY, USA"
    },
    {
      "city": "Guadeloupe",
      "county": "Caribbean",
      "iso": "",
      "flags": [
        "been"
      ],
      "lat": 16.251593,
      "lng": -61.579742,
      "name": "Guadeloupe, Caribbean"
    },
    {
      "city": "Freeport",
      "county": "Bahamas",
      "iso": "BS",
      "flags": [
        "been"
      ],
      "lat": 26.531061,
      "lng": -78.695435,
      "name": "Freeport, Bahamas"
    },
    {
      "city": "D'Iberville",
      "county": "MS",
      "iso": "",
      "flags": [
        "been"
      ],
      "lat": 30.44072,
      "lng": -88.89584,
      "name": "D'Iberville, MS, USA"
    },
    {
      "city": "Cave City",
      "county": "KY",
      "iso": "",
      "flags": [
        "been"
      ],
      "lat": 37.15263,
      "lng": -86.0479,
      "name": "Cave City, KY, USA"
    },
    {
      "city": "Wichita",
      "county": "KS",
      "iso": "",
      "flags": [
        "been"
      ],
      "lat": 37.693153,
      "lng": -97.33339,
      "name": "Wichita, KS, USA"
    },
    {
      "city": "Saint Paul",
      "county": "MN",
      "iso": "",
      "flags": [
        "been"
      ],
      "lat": 44.947777,
      "lng": -93.09513,
      "name": "Saint Paul, MN, USA"
    },
    {
      "city": "Elizabeth",
      "county": "IN",
      "iso": "",
      "flags": [
        "been"
      ],
      "lat": 38.12118,
      "lng": -85.97413,
      "name": "Elizabeth, IN, USA"
    },
    {
      "city": "Porto",
      "county": "Portugal",
      "iso": "PT",
      "flags": [
        "want"
      ],
      "lat": 41.14703,
      "lng": -8.61583,
      "name": "Porto, Portugal"
    },
    {
      "city": "Yoho National Park",
      "county": "British Columbia",
      "iso": "",
      "flags": [
        "been"
      ],
      "lat": 51.330612,
      "lng": -116.44844,
      "name": "Yoho National Park, British Columbia, Canada"
    },
    {
      "city": "Elkhart",
      "county": "IN",
      "iso": "",
      "flags": [
        "been"
      ],
      "lat": 41.637638,
      "lng": -85.92194,
      "name": "Elkhart, IN, USA"
    },
    {
      "city": "Paso Robles",
      "county": "CA",
      "iso": "",
      "flags": [
        "want"
      ],
      "lat": 35.628586,
      "lng": -120.68806,
      "name": "Paso Robles, CA, USA"
    },
    {
      "city": "Brunswick",
      "county": "GA",
      "iso": "",
      "flags": [
        "been"
      ],
      "lat": 31.155527,
      "lng": -81.49184,
      "name": "Brunswick, GA, USA"
    },
    {
      "city": "Macau",
      "county": "China",
      "iso": "CN",
      "flags": [
        "been"
      ],
      "lat": 22.18292,
      "lng": 113.55087,
      "name": "Macau, China"
    },
    {
      "city": "Singapore",
      "county": "Singapore",
      "iso": "SG",
      "flags": [
        "been"
      ],
      "lat": 1.285801,
      "lng": 103.85111,
      "name": "Singapore, Singapore"
    },
    {
      "city": "Buford",
      "county": "GA",
      "iso": "",
      "flags": [
        "been"
      ],
      "lat": 34.062096,
      "lng": -83.99038,
      "name": "Buford, GA, USA"
    },
    {
      "city": "Shenzhen",
      "county": "China",
      "iso": "CN",
      "flags": [
        "want"
      ],
      "lat": 22.535131,
      "lng": 114.062004,
      "name": "Shenzhen, China"
    },
    {
      "city": "Saint Francois",
      "county": "Guadeloupe",
      "iso": "GP",
      "flags": [
        "been"
      ],
      "lat": 16.252733,
      "lng": -61.266983,
      "name": "Saint Francois, Guadeloupe"
    },
    {
      "city": "Sainte-Anne",
      "county": "Guadeloupe",
      "iso": "GP",
      "flags": [
        "been"
      ],
      "lat": 16.23157,
      "lng": -61.386982,
      "name": "Sainte-Anne, Guadeloupe"
    },
    {
      "city": "Pueblo",
      "county": "CO",
      "iso": "",
      "flags": [
        "been"
      ],
      "lat": 38.263298,
      "lng": -104.61258,
      "name": "Pueblo, CO, USA"
    },
    {
      "city": "Cruz Bay",
      "county": "U.S. Virgin Islands",
      "iso": "",
      "flags": [
        "been"
      ],
      "lat": 18.331366,
      "lng": -64.79562,
      "name": "Cruz Bay, U.S. Virgin Islands"
    },
    {
      "city": "Saugatuck",
      "county": "MI",
      "iso": "",
      "flags": [
        "been"
      ],
      "lat": 42.65638,
      "lng": -86.2041,
      "name": "Saugatuck, MI, USA"
    },
    {
      "city": "Beachwood",
      "county": "OH",
      "iso": "",
      "flags": [
        "been"
      ],
      "lat": 41.48636,
      "lng": -81.50455,
      "name": "Beachwood, OH, USA"
    },
    {
      "city": "Evansville",
      "county": "IN",
      "iso": "",
      "flags": [
        "been"
      ],
      "lat": 37.97911,
      "lng": -87.55879,
      "name": "Evansville, IN, USA"
    },
    {
      "city": "Montreal",
      "county": "Quebec",
      "iso": "",
      "flags": [
        "been"
      ],
      "lat": 45.508022,
      "lng": -73.560036,
      "name": "Montreal, Quebec, Canada"
    },
    {
      "city": "Quebec City",
      "county": "Quebec",
      "iso": "",
      "flags": [
        "been"
      ],
      "lat": 46.81336,
      "lng": -71.2126,
      "name": "Quebec City, Quebec, Canada"
    },
    {
      "city": "Frisco",
      "county": "TX",
      "iso": "",
      "flags": [
        "been"
      ],
      "lat": 33.16593,
      "lng": -96.827255,
      "name": "Frisco, TX, USA"
    },
    {
      "city": "Ames",
      "county": "IA",
      "iso": "",
      "flags": [
        "been"
      ],
      "lat": 42.032005,
      "lng": -93.62296,
      "name": "Ames, IA, USA"
    },
    {
      "city": "Abu Dhabi",
      "county": "United Arab Emirates",
      "iso": "AE",
      "flags": [
        "been"
      ],
      "lat": 24.469482,
      "lng": 54.365982,
      "name": "Abu Dhabi, United Arab Emirates"
    },
    {
      "city": "Budapest",
      "county": "Hungary",
      "iso": "HU",
      "flags": [
        "been"
      ],
      "lat": 47.49346,
      "lng": 19.0507,
      "name": "Budapest, Hungary"
    },
    {
      "city": "Galveston",
      "county": "TX",
      "iso": "",
      "flags": [
        "been"
      ],
      "lat": 29.136522,
      "lng": -95.04735,
      "name": "Galveston, TX, USA"
    },
    {
      "city": "Nassau",
      "county": "Bahamas",
      "iso": "BS",
      "flags": [
        "been"
      ],
      "lat": 25.068712,
      "lng": -77.34091,
      "name": "Nassau, Bahamas"
    },
    {
      "city": "South Lake Tahoe",
      "county": "CA",
      "iso": "",
      "flags": [
        "been"
      ],
      "lat": 38.90813,
      "lng": -120.00504,
      "name": "South Lake Tahoe, CA, USA"
    },
    {
      "city": "Sacramento",
      "county": "CA",
      "iso": "",
      "flags": [
        "been"
      ],
      "lat": 38.58021,
      "lng": -121.49701,
      "name": "Sacramento, CA, USA"
    },
    {
      "city": "Cayey",
      "county": "Puerto Rico",
      "iso": "PR",
      "flags": [
        "been"
      ],
      "lat": 18.114216,
      "lng": -66.16359,
      "name": "Cayey, Puerto Rico"
    },
    {
      "city": "Playa del Carmen",
      "county": "Mexico",
      "iso": "MX",
      "flags": [
        "want"
      ],
      "lat": 20.630863,
      "lng": -87.07059,
      "name": "Playa del Carmen, Mexico"
    },
    {
      "city": "Vero Beach",
      "county": "FL",
      "iso": "",
      "flags": [
        "been"
      ],
      "lat": 27.638386,
      "lng": -80.40397,
      "name": "Vero Beach, FL, USA"
    },
    {
      "city": "Pittsburgh",
      "county": "PA",
      "iso": "",
      "flags": [
        "been"
      ],
      "lat": 40.44079,
      "lng": -79.99942,
      "name": "Pittsburgh, PA, USA"
    },
    {
      "city": "Tulum",
      "county": "Mexico",
      "iso": "MX",
      "flags": [
        "been"
      ],
      "lat": 20.21102,
      "lng": -87.46313,
      "name": "Tulum, Mexico"
    },
    {
      "city": "Rapid City",
      "county": "SD",
      "iso": "",
      "flags": [
        "been"
      ],
      "lat": 44.0836,
      "lng": -103.22868,
      "name": "Rapid City, SD, USA"
    },
    {
      "city": "Salina",
      "county": "KS",
      "iso": "",
      "flags": [
        "been"
      ],
      "lat": 38.84286,
      "lng": -97.60993,
      "name": "Salina, KS, USA"
    },
    {
      "city": "Ridgeland",
      "county": "SC",
      "iso": "",
      "flags": [
        "been"
      ],
      "lat": 32.478413,
      "lng": -80.972855,
      "name": "Ridgeland, SC, USA"
    },
    {
      "city": "Bardstown",
      "county": "KY",
      "iso": "",
      "flags": [
        "been"
      ],
      "lat": 37.80926,
      "lng": -85.46587,
      "name": "Bardstown, KY, USA"
    },
    {
      "city": "Windsor",
      "county": "Ontario",
      "iso": "",
      "flags": [
        "been"
      ],
      "lat": 42.306557,
      "lng": -83.03147,
      "name": "Windsor, Ontario, Canada"
    },
    {
      "city": "Doha",
      "county": "Qatar",
      "iso": "QA",
      "flags": [
        "been"
      ],
      "lat": 25.271786,
      "lng": 51.52917,
      "name": "Doha, Qatar"
    },
    {
      "city": "Isla Verde",
      "county": "Puerto Rico",
      "iso": "PR",
      "flags": [
        "been",
        "fave"
      ],
      "lat": 18.448399,
      "lng": -66.01663,
      "name": "Isla Verde, Puerto Rico"
    },
    {
      "city": "Gulf Shores",
      "county": "AL",
      "iso": "",
      "flags": [
        "been"
      ],
      "lat": 30.248156,
      "lng": -87.68958,
      "name": "Gulf Shores, AL, USA"
    },
    {
      "city": "Mountain View",
      "county": "CA",
      "iso": "",
      "flags": [
        "been"
      ],
      "lat": 37.39352,
      "lng": -122.07914,
      "name": "Mountain View, CA, USA"
    },
    {
      "city": "Phoenix",
      "county": "AZ",
      "iso": "",
      "flags": [
        "been"
      ],
      "lat": 33.46568,
      "lng": -112.07159,
      "name": "Phoenix, AZ, USA"
    },
    {
      "city": "Baton Rouge",
      "county": "LA",
      "iso": "",
      "flags": [
        "been"
      ],
      "lat": 30.48244,
      "lng": -91.165726,
      "name": "Baton Rouge, LA, USA"
    },
    {
      "city": "Napa",
      "county": "CA",
      "iso": "",
      "flags": [
        "been"
      ],
      "lat": 38.303932,
      "lng": -122.28353,
      "name": "Napa, CA, USA"
    },
    {
      "city": "Chichen Itza",
      "county": "Mexico",
      "iso": "MX",
      "flags": [
        "been"
      ],
      "lat": 20.68049,
      "lng": -88.56848,
      "name": "Chichen Itza, Mexico"
    },
    {
      "city": "Lake Charles",
      "county": "LA",
      "iso": "",
      "flags": [
        "been"
      ],
      "lat": 30.203005,
      "lng": -93.19329,
      "name": "Lake Charles, LA, USA"
    },
    {
      "city": "Cozumel",
      "county": "Mexico",
      "iso": "MX",
      "flags": [
        "been"
      ],
      "lat": 20.49241,
      "lng": -86.94372,
      "name": "Cozumel, Mexico"
    },
    {
      "city": "Valparaiso",
      "county": "FL",
      "iso": "",
      "flags": [
        "been"
      ],
      "lat": 30.5045,
      "lng": -86.48614,
      "name": "Valparaiso, FL, USA"
    },
    {
      "city": "Alexandria",
      "county": "VA",
      "iso": "",
      "flags": [
        "been"
      ],
      "lat": 38.804424,
      "lng": -77.041275,
      "name": "Alexandria, VA, USA"
    },
    {
      "city": "Charlotte Amalie",
      "county": "U.S. Virgin Islands",
      "iso": "",
      "flags": [
        "been"
      ],
      "lat": 18.34084,
      "lng": -64.930916,
      "name": "Charlotte Amalie, U.S. Virgin Islands"
    },
    {
      "city": "Krakow",
      "county": "Poland",
      "iso": "PL",
      "flags": [
        "been"
      ],
      "lat": 50.05449,
      "lng": 19.948544,
      "name": "Krakow, Poland"
    },
    {
      "city": "Milwaukee",
      "county": "WI",
      "iso": "",
      "flags": [
        "been"
      ],
      "lat": 43.039024,
      "lng": -87.906044,
      "name": "Milwaukee, WI, USA"
    },
    {
      "city": "Folkston",
      "county": "GA",
      "iso": "",
      "flags": [
        "been"
      ],
      "lat": 30.83101,
      "lng": -82.00892,
      "name": "Folkston, GA, USA"
    },
    {
      "city": "Long Beach",
      "county": "CA",
      "iso": "",
      "flags": [
        "been"
      ],
      "lat": 33.767212,
      "lng": -118.19244,
      "name": "Long Beach, CA, USA"
    },
    {
      "city": "Beirut",
      "county": "Lebanon",
      "iso": "LB",
      "flags": [
        "been"
      ],
      "lat": 33.90089,
      "lng": 35.494614,
      "name": "Beirut, Lebanon"
    },
    {
      "city": "Mexico City",
      "county": "Mexico",
      "iso": "MX",
      "flags": [
        "been"
      ],
      "lat": 19.432684,
      "lng": -99.13325,
      "name": "Mexico City, Mexico"
    },
    {
      "city": "Springdale",
      "county": "SC",
      "iso": "",
      "flags": [
        "been"
      ],
      "lat": 33.95932,
      "lng": -81.10898,
      "name": "Springdale, SC, USA"
    },
    {
      "city": "Spartanburg",
      "county": "SC",
      "iso": "",
      "flags": [
        "been"
      ],
      "lat": 34.94946,
      "lng": -81.93203,
      "name": "Spartanburg, SC, USA"
    },
    {
      "city": "Bay Saint Louis",
      "county": "MS",
      "iso": "",
      "flags": [
        "been"
      ],
      "lat": 30.310871,
      "lng": -89.330505,
      "name": "Bay Saint Louis, MS, USA"
    },
    {
      "city": "Isla Baru",
      "county": "Colombia",
      "iso": "CO",
      "flags": [
        "been"
      ],
      "lat": 10.25007,
      "lng": -75.58313,
      "name": "Isla Baru, Colombia"
    },
    {
      "city": "Portland",
      "county": "OR",
      "iso": "",
      "flags": [
        "been"
      ],
      "lat": 45.51649,
      "lng": -122.68002,
      "name": "Portland, OR, USA"
    },
    {
      "city": "Toronto",
      "county": "Ontario",
      "iso": "",
      "flags": [
        "been"
      ],
      "lat": 43.64381,
      "lng": -79.38554,
      "name": "Toronto, Ontario, Canada"
    },
    {
      "city": "Jefferson City",
      "county": "MO",
      "iso": "",
      "flags": [
        "been"
      ],
      "lat": 38.572975,
      "lng": -92.17825,
      "name": "Jefferson City, MO, USA"
    },
    {
      "city": "Covington",
      "county": "KY",
      "iso": "",
      "flags": [
        "been"
      ],
      "lat": 39.08156,
      "lng": -84.512764,
      "name": "Covington, KY, USA"
    },
    {
      "city": "Simpsonville",
      "county": "SC",
      "iso": "",
      "flags": [
        "been"
      ],
      "lat": 34.73634,
      "lng": -82.254684,
      "name": "Simpsonville, SC, USA"
    },
    {
      "city": "Corbin",
      "county": "KY",
      "iso": "",
      "flags": [
        "been"
      ],
      "lat": 36.94634,
      "lng": -84.09597,
      "name": "Corbin, KY, USA"
    },
    {
      "city": "Cork",
      "county": "Ireland",
      "iso": "IE",
      "flags": [
        "been"
      ],
      "lat": 51.891148,
      "lng": -8.474197,
      "name": "Cork, Ireland"
    },
    {
      "city": "Duncanville",
      "county": "TX",
      "iso": "",
      "flags": [
        "been"
      ],
      "lat": 32.663284,
      "lng": -96.90559,
      "name": "Duncanville, TX, USA"
    },
    {
      "city": "Bentonville",
      "county": "AR",
      "iso": "",
      "flags": [
        "been"
      ],
      "lat": 36.372673,
      "lng": -94.20852,
      "name": "Bentonville, AR, USA"
    },
    {
      "city": "Prescott",
      "county": "AZ",
      "iso": "",
      "flags": [
        "been"
      ],
      "lat": 34.541313,
      "lng": -112.47029,
      "name": "Prescott, AZ, USA"
    },
    {
      "city": "Keystone",
      "county": "CO",
      "iso": "",
      "flags": [
        "been"
      ],
      "lat": 39.60819,
      "lng": -105.95486,
      "name": "Keystone, CO, USA"
    },
    {
      "city": "Los Angeles",
      "county": "CA",
      "iso": "",
      "flags": [
        "been"
      ],
      "lat": 34.05106,
      "lng": -118.23284,
      "name": "Los Angeles, CA, USA"
    },
    {
      "city": "Kiev",
      "county": "Ukraine",
      "iso": "UA",
      "flags": [
        "been"
      ],
      "lat": 50.444885,
      "lng": 30.536667,
      "name": "Kiev, Ukraine"
    },
    {
      "city": "Dublin",
      "county": "Ireland",
      "iso": "IE",
      "flags": [
        "been"
      ],
      "lat": 53.345966,
      "lng": -6.25341,
      "name": "Dublin, Ireland"
    },
    {
      "city": "Chicago",
      "county": "IL",
      "iso": "",
      "flags": [
        "been"
      ],
      "lat": 41.878407,
      "lng": -87.62568,
      "name": "Chicago, IL, USA"
    },
    {
      "city": "Lexington",
      "county": "SC",
      "iso": "",
      "flags": [
        "been"
      ],
      "lat": 33.979458,
      "lng": -81.25063,
      "name": "Lexington, SC, USA"
    },
    {
      "city": "Las Vegas",
      "county": "NV",
      "iso": "",
      "flags": [
        "been"
      ],
      "lat": 36.114304,
      "lng": -115.17208,
      "name": "Las Vegas, NV, USA"
    },
    {
      "city": "Saint Charles",
      "county": "MO",
      "iso": "",
      "flags": [
        "been"
      ],
      "lat": 38.782658,
      "lng": -90.48265,
      "name": "Saint Charles, MO, USA"
    },
    {
      "city": "Taganga",
      "county": "Colombia",
      "iso": "CO",
      "flags": [
        "been"
      ],
      "lat": 11.269027,
      "lng": -74.19016,
      "name": "Taganga, Colombia"
    },
    {
      "city": "Berea",
      "county": "KY",
      "iso": "",
      "flags": [
        "been"
      ],
      "lat": 37.57154,
      "lng": -84.29296,
      "name": "Berea, KY, USA"
    },
    {
      "city": "Ottawa",
      "county": "Ontario",
      "iso": "",
      "flags": [
        "been"
      ],
      "lat": 45.422794,
      "lng": -75.695625,
      "name": "Ottawa, Ontario, Canada"
    },
    {
      "city": "Bologna",
      "county": "Italy",
      "iso": "IT",
      "flags": [
        "been"
      ],
      "lat": 44.494133,
      "lng": 11.343634,
      "name": "Bologna, Italy"
    },
    {
      "city": "Jakarta",
      "county": "Indonesia",
      "iso": "ID",
      "flags": [
        "want"
      ],
      "lat": -6.202333,
      "lng": 106.84238,
      "name": "Jakarta, Indonesia"
    },
    {
      "city": "Bayou La Batre",
      "county": "AL",
      "iso": "",
      "flags": [
        "been"
      ],
      "lat": 30.40421,
      "lng": -88.24787,
      "name": "Bayou La Batre, AL, USA"
    },
    {
      "city": "Saint Augustine Beach",
      "county": "FL",
      "iso": "",
      "flags": [
        "been"
      ],
      "lat": 29.84914,
      "lng": -81.2672,
      "name": "Saint Augustine Beach, FL, USA"
    },
    {
      "city": "Arlington",
      "county": "VA",
      "iso": "",
      "flags": [
        "been"
      ],
      "lat": 38.889206,
      "lng": -77.09129,
      "name": "Arlington, VA, USA"
    },
    {
      "city": "Durham",
      "county": "NC",
      "iso": "",
      "flags": [
        "been"
      ],
      "lat": 35.99448,
      "lng": -78.898445,
      "name": "Durham, NC, USA"
    },
    {
      "city": "Adelaide",
      "county": "Australia",
      "iso": "AU",
      "flags": [
        "been"
      ],
      "lat": -34.92823,
      "lng": 138.60112,
      "name": "Adelaide, Australia"
    },
    {
      "city": "Dothan",
      "county": "AL",
      "iso": "",
      "flags": [
        "been"
      ],
      "lat": 31.22538,
      "lng": -85.39139,
      "name": "Dothan, AL, USA"
    },
    {
      "city": "Weeki Wachee",
      "county": "FL",
      "iso": "",
      "flags": [
        "been"
      ],
      "lat": 28.517317,
      "lng": -82.574265,
      "name": "Weeki Wachee, FL, USA"
    },
    {
      "city": "Hobart",
      "county": "Australia",
      "iso": "AU",
      "flags": [
        "want"
      ],
      "lat": -42.880306,
      "lng": 147.33038,
      "name": "Hobart, Australia"
    },
    {
      "city": "St. Petersburg",
      "county": "FL",
      "iso": "",
      "flags": [
        "been"
      ],
      "lat": 27.771202,
      "lng": -82.63945,
      "name": "St. Petersburg, FL, USA"
    },
    {
      "city": "Aspen",
      "county": "CO",
      "iso": "",
      "flags": [
        "been"
      ],
      "lat": 39.190567,
      "lng": -106.81789,
      "name": "Aspen, CO, USA"
    },
    {
      "city": "St. Pete Beach",
      "county": "FL",
      "iso": "",
      "flags": [
        "been"
      ],
      "lat": 27.722322,
      "lng": -82.7393,
      "name": "St. Pete Beach, FL, USA"
    },
    {
      "city": "Reno",
      "county": "NV",
      "iso": "",
      "flags": [
        "been"
      ],
      "lat": 39.528328,
      "lng": -119.81441,
      "name": "Reno, NV, USA"
    },
    {
      "city": "Keystone",
      "county": "SD",
      "iso": "",
      "flags": [
        "been"
      ],
      "lat": 43.892868,
      "lng": -103.42425,
      "name": "Keystone, SD, USA"
    },
    {
      "city": "Florence",
      "county": "SC",
      "iso": "",
      "flags": [
        "been"
      ],
      "lat": 34.19516,
      "lng": -79.74906,
      "name": "Florence, SC, USA"
    },
    {
      "city": "Red Wing",
      "county": "MN",
      "iso": "",
      "flags": [
        "been"
      ],
      "lat": 44.564083,
      "lng": -92.53532,
      "name": "Red Wing, MN, USA"
    },
    {
      "city": "Hong Kong",
      "county": "China",
      "iso": "CN",
      "flags": [
        "been"
      ],
      "lat": 22.309187,
      "lng": 114.17359,
      "name": "Hong Kong, China"
    },
    {
      "city": "Bucharest",
      "county": "Romania",
      "iso": "RO",
      "flags": [
        "been"
      ],
      "lat": 44.42677,
      "lng": 26.103397,
      "name": "Bucharest, Romania"
    },
    {
      "city": "Eureka Springs",
      "county": "AR",
      "iso": "",
      "flags": [
        "been"
      ],
      "lat": 36.40195,
      "lng": -93.73756,
      "name": "Eureka Springs, AR, USA"
    },
    {
      "city": "West Palm Beach",
      "county": "FL",
      "iso": "",
      "flags": [
        "been"
      ],
      "lat": 26.713482,
      "lng": -80.05155,
      "name": "West Palm Beach, FL, USA"
    },
    {
      "city": "Birmingham",
      "county": "AL",
      "iso": "",
      "flags": [
        "been"
      ],
      "lat": 33.522934,
      "lng": -86.812584,
      "name": "Birmingham, AL, USA"
    },
    {
      "city": "Sandestin",
      "county": "FL",
      "iso": "",
      "flags": [
        "been"
      ],
      "lat": 30.378323,
      "lng": -86.33048,
      "name": "Sandestin, FL, USA"
    },
    {
      "city": "College Park",
      "county": "GA",
      "iso": "",
      "flags": [
        "been"
      ],
      "lat": 33.652744,
      "lng": -84.449326,
      "name": "College Park, GA, USA"
    },
    {
      "city": "Sarajevo",
      "county": "Bosnia and Herzegovina",
      "iso": "BA",
      "flags": [
        "been"
      ],
      "lat": 43.86231,
      "lng": 18.432571,
      "name": "Sarajevo, Bosnia and Herzegovina"
    },
    {
      "city": "Antalya",
      "county": "Turkey",
      "iso": "TR",
      "flags": [
        "been"
      ],
      "lat": 36.88372,
      "lng": 30.70817,
      "name": "Antalya, Turkey"
    },
    {
      "city": "Charleston",
      "county": "WV",
      "iso": "",
      "flags": [
        "been"
      ],
      "lat": 38.352394,
      "lng": -81.63689,
      "name": "Charleston, WV, USA"
    },
    {
      "city": "Fayetteville",
      "county": "AR",
      "iso": "",
      "flags": [
        "been"
      ],
      "lat": 36.06206,
      "lng": -94.1606,
      "name": "Fayetteville, AR, USA"
    },
    {
      "city": "Weston",
      "county": "FL",
      "iso": "",
      "flags": [
        "been"
      ],
      "lat": 26.12644,
      "lng": -80.37235,
      "name": "Weston, FL, USA"
    },
    {
      "city": "Sofia",
      "county": "Bulgaria",
      "iso": "BG",
      "flags": [
        "want"
      ],
      "lat": 42.695305,
      "lng": 23.321167,
      "name": "Sofia, Bulgaria"
    },
    {
      "city": "Sarasota",
      "county": "FL",
      "iso": "",
      "flags": [
        "been"
      ],
      "lat": 27.337393,
      "lng": -82.54139,
      "name": "Sarasota, FL, USA"
    },
    {
      "city": "Zagreb",
      "county": "Croatia",
      "iso": "HR",
      "flags": [
        "been"
      ],
      "lat": 45.80877,
      "lng": 15.971053,
      "name": "Zagreb, Croatia"
    },
    {
      "city": "Beijing",
      "county": "China",
      "iso": "CN",
      "flags": [
        "been"
      ],
      "lat": 39.909336,
      "lng": 116.39452,
      "name": "Beijing, China"
    },
    {
      "city": "Sanibel Island",
      "county": "FL",
      "iso": "",
      "flags": [
        "been"
      ],
      "lat": 26.436646,
      "lng": -82.076935,
      "name": "Sanibel Island, FL, USA"
    },
    {
      "city": "Dubai",
      "county": "United Arab Emirates",
      "iso": "AE",
      "flags": [
        "been"
      ],
      "lat": 25.274548,
      "lng": 55.36086,
      "name": "Dubai, United Arab Emirates"
    },
    {
      "city": "Deadwood",
      "county": "SD",
      "iso": "",
      "flags": [
        "been"
      ],
      "lat": 44.375767,
      "lng": -103.73058,
      "name": "Deadwood, SD, USA"
    },
    {
      "city": "Biloxi",
      "county": "MS",
      "iso": "",
      "flags": [
        "been"
      ],
      "lat": 30.396545,
      "lng": -88.89407,
      "name": "Biloxi, MS, USA"
    },
    {
      "city": "Kalamazoo",
      "county": "MI",
      "iso": "",
      "flags": [
        "been"
      ],
      "lat": 42.291725,
      "lng": -85.586655,
      "name": "Kalamazoo, MI, USA"
    },
    {
      "city": "Joplin",
      "county": "MO",
      "iso": "",
      "flags": [
        "been"
      ],
      "lat": 37.13973,
      "lng": -94.51235,
      "name": "Joplin, MO, USA"
    },
    {
      "city": "Minneapolis",
      "county": "MN",
      "iso": "",
      "flags": [
        "been"
      ],
      "lat": 44.977795,
      "lng": -93.26244,
      "name": "Minneapolis, MN, USA"
    },
    {
      "city": "Summerville",
      "county": "SC",
      "iso": "",
      "flags": [
        "been"
      ],
      "lat": 33.019257,
      "lng": -80.17601,
      "name": "Summerville, SC, USA"
    },
    {
      "city": "Kansas City",
      "county": "MO",
      "iso": "",
      "flags": [
        "been"
      ],
      "lat": 39.099228,
      "lng": -94.586136,
      "name": "Kansas City, MO, USA"
    },
    {
      "city": "Youngstown",
      "county": "OH",
      "iso": "",
      "flags": [
        "been"
      ],
      "lat": 41.15239,
      "lng": -80.63409,
      "name": "Youngstown, OH, USA"
    },
    {
      "city": "Addison",
      "county": "TX",
      "iso": "",
      "flags": [
        "been"
      ],
      "lat": 32.960915,
      "lng": -96.8271,
      "name": "Addison, TX, USA"
    },
    {
      "city": "Scottsdale",
      "county": "AZ",
      "iso": "",
      "flags": [
        "been"
      ],
      "lat": 33.49642,
      "lng": -111.92447,
      "name": "Scottsdale, AZ, USA"
    },
    {
      "city": "Conyers",
      "county": "GA",
      "iso": "",
      "flags": [
        "been"
      ],
      "lat": 33.65997,
      "lng": -84.01714,
      "name": "Conyers, GA, USA"
    },
    {
      "city": "Sedona",
      "county": "AZ",
      "iso": "",
      "flags": [
        "been"
      ],
      "lat": 34.840816,
      "lng": -111.77602,
      "name": "Sedona, AZ, USA"
    },
    {
      "city": "Warsaw",
      "county": "Poland",
      "iso": "PL",
      "flags": [
        "been"
      ],
      "lat": 52.2331,
      "lng": 21.00794,
      "name": "Warsaw, Poland"
    },
    {
      "city": "Snowmass Village",
      "county": "CO",
      "iso": "",
      "flags": [
        "been"
      ],
      "lat": 39.21136,
      "lng": -106.9462,
      "name": "Snowmass Village, CO, USA"
    },
    {
      "city": "Steamboat Springs",
      "county": "CO",
      "iso": "",
      "flags": [
        "been"
      ],
      "lat": 40.486744,
      "lng": -106.83283,
      "name": "Steamboat Springs, CO, USA"
    },
    {
      "city": "Winter Park",
      "county": "FL",
      "iso": "",
      "flags": [
        "been"
      ],
      "lat": 28.588255,
      "lng": -81.357475,
      "name": "Winter Park, FL, USA"
    },
    {
      "city": "Marshall",
      "county": "CA",
      "iso": "",
      "flags": [
        "been"
      ],
      "lat": 38.162365,
      "lng": -122.89307,
      "name": "Marshall, CA, USA"
    },
    {
      "city": "Bedford",
      "county": "IN",
      "iso": "",
      "flags": [
        "been"
      ],
      "lat": 38.861553,
      "lng": -86.489914,
      "name": "Bedford, IN, USA"
    },
    {
      "city": "Seaside",
      "county": "FL",
      "iso": "",
      "flags": [
        "been"
      ],
      "lat": 30.349073,
      "lng": -86.2084,
      "name": "Seaside, FL, USA"
    },
    {
      "city": "Okeechobee",
      "county": "FL",
      "iso": "",
      "flags": [
        "been",
        "fave"
      ],
      "lat": 27.244999,
      "lng": -80.83081,
      "name": "Okeechobee, FL, USA"
    },
    {
      "city": "Seagrove Beach",
      "county": "FL",
      "iso": "",
      "flags": [
        "been"
      ],
      "lat": 30.32062,
      "lng": -86.1295,
      "name": "Seagrove Beach, FL, USA"
    },
    {
      "city": "Cairo",
      "county": "Egypt",
      "iso": "EG",
      "flags": [
        "been"
      ],
      "lat": 30.04578,
      "lng": 31.24278,
      "name": "Cairo, Egypt"
    },
    {
      "city": "Altha",
      "county": "FL",
      "iso": "",
      "flags": [
        "been"
      ],
      "lat": 30.57,
      "lng": -85.12719,
      "name": "Altha, FL, USA"
    },
    {
      "city": "High Point",
      "county": "NC",
      "iso": "",
      "flags": [
        "been"
      ],
      "lat": 36.014744,
      "lng": -80.05832,
      "name": "High Point, NC, USA"
    },
    {
      "city": "Moline",
      "county": "IL",
      "iso": "",
      "flags": [
        "been"
      ],
      "lat": 41.508698,
      "lng": -90.51885,
      "name": "Moline, IL, USA"
    },
    {
      "city": "Moss Point",
      "county": "MS",
      "iso": "",
      "flags": [
        "been"
      ],
      "lat": 30.397888,
      "lng": -88.53301,
      "name": "Moss Point, MS, USA"
    },
    {
      "city": "Rising Sun",
      "county": "IN",
      "iso": "",
      "flags": [
        "been"
      ],
      "lat": 38.952797,
      "lng": -84.84611,
      "name": "Rising Sun, IN, USA"
    },
    {
      "city": "Blountstown",
      "county": "FL",
      "iso": "",
      "flags": [
        "been"
      ],
      "lat": 30.444004,
      "lng": -85.046074,
      "name": "Blountstown, FL, USA"
    },
    {
      "city": "Big Pine Key",
      "county": "FL",
      "iso": "",
      "flags": [
        "been"
      ],
      "lat": 24.66983,
      "lng": -81.348305,
      "name": "Big Pine Key, FL, USA"
    },
    {
      "city": "Richmond",
      "county": "IN",
      "iso": "",
      "flags": [
        "been"
      ],
      "lat": 39.84368,
      "lng": -84.90766,
      "name": "Richmond, IN, USA"
    },
    {
      "city": "Lima",
      "county": "Peru",
      "iso": "PE",
      "flags": [
        "been"
      ],
      "lat": -12.072676,
      "lng": -77.03925,
      "name": "Lima, Peru"
    },
    {
      "city": "Prague",
      "county": "Czech Republic",
      "iso": "CZ",
      "flags": [
        "been"
      ],
      "lat": 50.076847,
      "lng": 14.427817,
      "name": "Prague, Czech Republic"
    },
    {
      "city": "Kingsland",
      "county": "GA",
      "iso": "",
      "flags": [
        "been"
      ],
      "lat": 30.79891,
      "lng": -81.69088,
      "name": "Kingsland, GA, USA"
    },
    {
      "city": "Edgewater",
      "county": "FL",
      "iso": "",
      "flags": [
        "been"
      ],
      "lat": 28.96959,
      "lng": -80.89711,
      "name": "Edgewater, FL, USA"
    },
    {
      "city": "Turin",
      "county": "Italy",
      "iso": "IT",
      "flags": [
        "been"
      ],
      "lat": 45.059376,
      "lng": 7.689138,
      "name": "Turin, Italy"
    },
    {
      "city": "Florence",
      "county": "IN",
      "iso": "",
      "flags": [
        "been"
      ],
      "lat": 38.78423,
      "lng": -84.92439,
      "name": "Florence, IN, USA"
    },
    {
      "city": "Machu Picchu",
      "county": "Peru",
      "iso": "PE",
      "flags": [
        "want"
      ],
      "lat": -13.181424,
      "lng": -72.53369,
      "name": "Machu Picchu, Peru"
    },
    {
      "city": "Fishers",
      "county": "IN",
      "iso": "",
      "flags": [
        "been"
      ],
      "lat": 39.95773,
      "lng": -86.03621,
      "name": "Fishers, IN, USA"
    },
    {
      "city": "New Delhi",
      "county": "India",
      "iso": "IN",
      "flags": [
        "want"
      ],
      "lat": 28.612072,
      "lng": 77.22978,
      "name": "New Delhi, India"
    },
    {
      "city": "Sydney",
      "county": "Australia",
      "iso": "AU",
      "flags": [
        "been"
      ],
      "lat": -33.870037,
      "lng": 151.20955,
      "name": "Sydney, Australia"
    },
    {
      "city": "Courthezon",
      "county": "France",
      "iso": "FR",
      "flags": [
        "been"
      ],
      "lat": 44.08333,
      "lng": 4.88333,
      "name": "Courthezon, France"
    },
    {
      "city": "Montgomery",
      "county": "AL",
      "iso": "",
      "flags": [
        "been"
      ],
      "lat": 32.379807,
      "lng": -86.29784,
      "name": "Montgomery, AL, USA"
    },
    {
      "city": "Cleveland",
      "county": "OH",
      "iso": "",
      "flags": [
        "been"
      ],
      "lat": 41.49958,
      "lng": -81.69382,
      "name": "Cleveland, OH, USA"
    },
    {
      "city": "Raleigh",
      "county": "NC",
      "iso": "",
      "flags": [
        "been"
      ],
      "lat": 35.787697,
      "lng": -78.6411,
      "name": "Raleigh, NC, USA"
    },
    {
      "city": "Cusco",
      "county": "Peru",
      "iso": "PE",
      "flags": [
        "been"
      ],
      "lat": -13.521886,
      "lng": -71.96856,
      "name": "Cusco, Peru"
    },
    {
      "city": "Cairns",
      "county": "Australia",
      "iso": "AU",
      "flags": [
        "been"
      ],
      "lat": -16.91864,
      "lng": 145.77284,
      "name": "Cairns, Australia"
    },
    {
      "city": "Sioux Falls",
      "county": "SD",
      "iso": "",
      "flags": [
        "been"
      ],
      "lat": 43.544323,
      "lng": -96.72635,
      "name": "Sioux Falls, SD, USA"
    },
    {
      "city": "Brisbane",
      "county": "Australia",
      "iso": "AU",
      "flags": [
        "been"
      ],
      "lat": -27.4681,
      "lng": 153.02197,
      "name": "Brisbane, Australia"
    },
    {
      "city": "Hendersonville",
      "county": "NC",
      "iso": "",
      "flags": [
        "been"
      ],
      "lat": 35.317505,
      "lng": -82.46049,
      "name": "Hendersonville, NC, USA"
    },
    {
      "city": "Nashville",
      "county": "IN",
      "iso": "",
      "flags": [
        "been"
      ],
      "lat": 39.206482,
      "lng": -86.247856,
      "name": "Nashville, IN, USA"
    },
    {
      "city": "Lancaster",
      "county": "PA",
      "iso": "",
      "flags": [
        "been"
      ],
      "lat": 40.038708,
      "lng": -76.30471,
      "name": "Lancaster, PA, USA"
    },
    {
      "city": "Lafayette",
      "county": "IN",
      "iso": "",
      "flags": [
        "been"
      ],
      "lat": 40.395527,
      "lng": -86.880035,
      "name": "Lafayette, IN, USA"
    },
    {
      "city": "New Albany",
      "county": "IN",
      "iso": "",
      "flags": [
        "been"
      ],
      "lat": 38.30621,
      "lng": -85.84151,
      "name": "New Albany, IN, USA"
    },
    {
      "city": "Bonifay",
      "county": "FL",
      "iso": "",
      "flags": [
        "been"
      ],
      "lat": 30.79298,
      "lng": -85.67959,
      "name": "Bonifay, FL, USA"
    },
    {
      "city": "Bradenton Beach",
      "county": "FL",
      "iso": "",
      "flags": [
        "been"
      ],
      "lat": 27.512836,
      "lng": -82.723206,
      "name": "Bradenton Beach, FL, USA"
    },
    {
      "city": "Vieux Fort",
      "county": "St. Lucia",
      "iso": "",
      "flags": [
        "been"
      ],
      "lat": 13.730694,
      "lng": -60.949482,
      "name": "Vieux Fort, St. Lucia"
    },
    {
      "city": "Virginia Beach",
      "county": "VA",
      "iso": "",
      "flags": [
        "been"
      ],
      "lat": 36.848545,
      "lng": -75.978745,
      "name": "Virginia Beach, VA, USA"
    },
    {
      "city": "Santiago",
      "county": "Chile",
      "iso": "CL",
      "flags": [
        "been"
      ],
      "lat": -33.43771,
      "lng": -70.64779,
      "name": "Santiago, Chile"
    },
    {
      "city": "Battle Creek",
      "county": "MI",
      "iso": "",
      "flags": [
        "been"
      ],
      "lat": 42.321552,
      "lng": -85.1762,
      "name": "Battle Creek, MI, USA"
    },
    {
      "city": "Boca Raton",
      "county": "FL",
      "iso": "",
      "flags": [
        "been"
      ],
      "lat": 26.356264,
      "lng": -80.08537,
      "name": "Boca Raton, FL, USA"
    },
    {
      "city": "Florence",
      "county": "KY",
      "iso": "",
      "flags": [
        "been"
      ],
      "lat": 38.998497,
      "lng": -84.64491,
      "name": "Florence, KY, USA"
    },
    {
      "city": "Kokomo",
      "county": "IN",
      "iso": "",
      "flags": [
        "been"
      ],
      "lat": 40.49051,
      "lng": -86.13129,
      "name": "Kokomo, IN, USA"
    },
    {
      "city": "Muncie",
      "county": "IN",
      "iso": "",
      "flags": [
        "been"
      ],
      "lat": 40.221657,
      "lng": -85.375336,
      "name": "Muncie, IN, USA"
    },
    {
      "city": "Fort Wayne",
      "county": "IN",
      "iso": "",
      "flags": [
        "been"
      ],
      "lat": 41.13144,
      "lng": -85.14016,
      "name": "Fort Wayne, IN, USA"
    },
    {
      "city": "Radcliff",
      "county": "KY",
      "iso": "",
      "flags": [
        "been"
      ],
      "lat": 37.83867,
      "lng": -85.94772,
      "name": "Radcliff, KY, USA"
    },
    {
      "city": "Bozeman",
      "county": "MT",
      "iso": "",
      "flags": [
        "been"
      ],
      "lat": 45.67792,
      "lng": -111.04011,
      "name": "Bozeman, MT, USA"
    },
    {
      "city": "Milan",
      "county": "Italy",
      "iso": "IT",
      "flags": [
        "been"
      ],
      "lat": 45.464787,
      "lng": 9.189092,
      "name": "Milan, Italy"
    },
    {
      "city": "Hickory",
      "county": "NC",
      "iso": "",
      "flags": [
        "been"
      ],
      "lat": 35.75454,
      "lng": -81.36783,
      "name": "Hickory, NC, USA"
    },
    {
      "city": "Canberra",
      "county": "Australia",
      "iso": "AU",
      "flags": [
        "want"
      ],
      "lat": -35.28279,
      "lng": 149.12856,
      "name": "Canberra, Australia"
    },
    {
      "city": "Columbus",
      "county": "OH",
      "iso": "",
      "flags": [
        "been"
      ],
      "lat": 39.96144,
      "lng": -82.99728,
      "name": "Columbus, OH, USA"
    },
    {
      "city": "Chattanooga",
      "county": "TN",
      "iso": "",
      "flags": [
        "been"
      ],
      "lat": 35.04739,
      "lng": -85.310234,
      "name": "Chattanooga, TN, USA"
    },
    {
      "city": "Roissy-en-France",
      "county": "France",
      "iso": "FR",
      "flags": [
        "been"
      ],
      "lat": 49.003242,
      "lng": 2.516444,
      "name": "Roissy-en-France, France"
    },
    {
      "city": "Thomasville",
      "county": "NC",
      "iso": "",
      "flags": [
        "been"
      ],
      "lat": 35.882977,
      "lng": -80.0807,
      "name": "Thomasville, NC, USA"
    },
    {
      "city": "French Lick",
      "county": "IN",
      "iso": "",
      "flags": [
        "been"
      ],
      "lat": 38.548473,
      "lng": -86.620255,
      "name": "French Lick, IN, USA"
    },
    {
      "city": "Venice",
      "county": "Italy",
      "iso": "IT",
      "flags": [
        "been"
      ],
      "lat": 45.439087,
      "lng": 12.323647,
      "name": "Venice, Italy"
    },
    {
      "city": "Hattiesburg",
      "county": "MS",
      "iso": "",
      "flags": [
        "been"
      ],
      "lat": 31.32842,
      "lng": -89.2927,
      "name": "Hattiesburg, MS, USA"
    },
    {
      "city": "Oxford",
      "county": "MS",
      "iso": "",
      "flags": [
        "been"
      ],
      "lat": 34.36653,
      "lng": -89.51896,
      "name": "Oxford, MS, USA"
    },
    {
      "city": "Lookout Mountain",
      "county": "GA",
      "iso": "",
      "flags": [
        "been"
      ],
      "lat": 34.974133,
      "lng": -85.35048,
      "name": "Lookout Mountain, GA, USA"
    },
    {
      "city": "Richmond",
      "county": "KY",
      "iso": "",
      "flags": [
        "been"
      ],
      "lat": 37.741405,
      "lng": -84.27719,
      "name": "Richmond, KY, USA"
    },
    {
      "city": "Pooler",
      "county": "GA",
      "iso": "",
      "flags": [
        "been"
      ],
      "lat": 32.11423,
      "lng": -81.24083,
      "name": "Pooler, GA, USA"
    },
    {
      "city": "Frankfort",
      "county": "KY",
      "iso": "",
      "flags": [
        "been"
      ],
      "lat": 38.19811,
      "lng": -84.877,
      "name": "Frankfort, KY, USA"
    },
    {
      "city": "Madrid",
      "county": "Spain",
      "iso": "ES",
      "flags": [
        "want"
      ],
      "lat": 40.41471,
      "lng": -3.700708,
      "name": "Madrid, Spain"
    },
    {
      "city": "Lake Geneva",
      "county": "WI",
      "iso": "",
      "flags": [
        "been"
      ],
      "lat": 42.591843,
      "lng": -88.43381,
      "name": "Lake Geneva, WI, USA"
    },
    {
      "city": "Charlestown",
      "county": "IN",
      "iso": "",
      "flags": [
        "been"
      ],
      "lat": 38.44236,
      "lng": -85.66303,
      "name": "Charlestown, IN, USA"
    },
    {
      "city": "Atlantic City",
      "county": "NJ",
      "iso": "",
      "flags": [
        "been"
      ],
      "lat": 39.365463,
      "lng": -74.43016,
      "name": "Atlantic City, NJ, USA"
    },
    {
      "city": "Archdale",
      "county": "NC",
      "iso": "",
      "flags": [
        "been"
      ],
      "lat": 35.91343,
      "lng": -79.97258,
      "name": "Archdale, NC, USA"
    },
    {
      "city": "Las Terrenas",
      "county": "Dominican Republic",
      "iso": "DO",
      "flags": [
        "been"
      ],
      "lat": 19.31667,
      "lng": -69.53333,
      "name": "Las Terrenas, Dominican Republic"
    },
    {
      "city": "Mooresville",
      "county": "NC",
      "iso": "",
      "flags": [
        "been"
      ],
      "lat": 35.621094,
      "lng": -80.720314,
      "name": "Mooresville, NC, USA"
    },
    {
      "city": "Helsinki",
      "county": "Finland",
      "iso": "FI",
      "flags": [
        "want"
      ],
      "lat": 60.16798,
      "lng": 24.940203,
      "name": "Helsinki, Finland"
    },
    {
      "city": "Norman",
      "county": "OK",
      "iso": "",
      "flags": [
        "been"
      ],
      "lat": 35.22794,
      "lng": -97.48641,
      "name": "Norman, OK, USA"
    },
    {
      "city": "Fleming Island",
      "county": "FL",
      "iso": "",
      "flags": [
        "been"
      ],
      "lat": 30.0933,
      "lng": -81.71898,
      "name": "Fleming Island, FL, USA"
    },
    {
      "city": "Atlantic Beach",
      "county": "NC",
      "iso": "",
      "flags": [
        "been"
      ],
      "lat": 34.698277,
      "lng": -76.739136,
      "name": "Atlantic Beach, NC, USA"
    },
    {
      "city": "Danville",
      "county": "KY",
      "iso": "",
      "flags": [
        "been"
      ],
      "lat": 37.646515,
      "lng": -84.7748,
      "name": "Danville, KY, USA"
    },
    {
      "city": "Georgetown",
      "county": "KY",
      "iso": "",
      "flags": [
        "been"
      ],
      "lat": 38.20762,
      "lng": -84.55344,
      "name": "Georgetown, KY, USA"
    },
    {
      "city": "Gulfport",
      "county": "MS",
      "iso": "",
      "flags": [
        "been"
      ],
      "lat": 30.36742,
      "lng": -89.09265,
      "name": "Gulfport, MS, USA"
    },
    {
      "city": "Park City",
      "county": "UT",
      "iso": "",
      "flags": [
        "been"
      ],
      "lat": 40.651993,
      "lng": -111.49961,
      "name": "Park City, UT, USA"
    },
    {
      "city": "New Washington",
      "county": "IN",
      "iso": "",
      "flags": [
        "been"
      ],
      "lat": 38.56312,
      "lng": -85.53968,
      "name": "New Washington, IN, USA"
    },
    {
      "city": "Lawrenceburg",
      "county": "IN",
      "iso": "",
      "flags": [
        "been"
      ],
      "lat": 39.156616,
      "lng": -84.82668,
      "name": "Lawrenceburg, IN, USA"
    },
    {
      "city": "Ocean Springs",
      "county": "MS",
      "iso": "",
      "flags": [
        "been"
      ],
      "lat": 30.41124,
      "lng": -88.809654,
      "name": "Ocean Springs, MS, USA"
    },
    {
      "city": "Glasgow",
      "county": "UK",
      "iso": "GB",
      "flags": [
        "been"
      ],
      "lat": 55.859673,
      "lng": -4.257223,
      "name": "Glasgow, UK"
    },
    {
      "city": "Wroclaw",
      "county": "Poland",
      "iso": "PL",
      "flags": [
        "been"
      ],
      "lat": 51.11102,
      "lng": 17.028801,
      "name": "Wroclaw, Poland"
    },
    {
      "city": "La Crosse",
      "county": "WI",
      "iso": "",
      "flags": [
        "been"
      ],
      "lat": 43.81726,
      "lng": -91.24829,
      "name": "La Crosse, WI, USA"
    },
    {
      "city": "Huntsville",
      "county": "AL",
      "iso": "",
      "flags": [
        "been"
      ],
      "lat": 34.766,
      "lng": -86.586,
      "name": "Huntsville, AL, USA"
    },
    {
      "city": "Niagara Falls",
      "county": "NY",
      "iso": "",
      "flags": [
        "been"
      ],
      "lat": 43.086983,
      "lng": -79.06434,
      "name": "Niagara Falls, NY, USA"
    },
    {
      "city": "Herblay",
      "county": "France",
      "iso": "FR",
      "flags": [
        "been"
      ],
      "lat": 48.99068,
      "lng": 2.16761,
      "name": "Herblay, France"
    },
    {
      "city": "Lake Placid",
      "county": "NY",
      "iso": "",
      "flags": [
        "been"
      ],
      "lat": 44.281834,
      "lng": -73.978874,
      "name": "Lake Placid, NY, USA"
    },
    {
      "city": "Jackson",
      "county": "WY",
      "iso": "",
      "flags": [
        "been"
      ],
      "lat": 43.486156,
      "lng": -110.76335,
      "name": "Jackson, WY, USA"
    },
    {
      "city": "Fayetteville",
      "county": "NC",
      "iso": "",
      "flags": [
        "been"
      ],
      "lat": 35.059772,
      "lng": -78.874725,
      "name": "Fayetteville, NC, USA"
    },
    {
      "city": "Tulsa",
      "county": "OK",
      "iso": "",
      "flags": [
        "been"
      ],
      "lat": 36.15552,
      "lng": -95.98781,
      "name": "Tulsa, OK, USA"
    },
    {
      "city": "Plymouth",
      "county": "MA",
      "iso": "",
      "flags": [
        "been"
      ],
      "lat": 41.95844,
      "lng": -70.66726,
      "name": "Plymouth, MA, USA"
    },
    {
      "city": "Joliet",
      "county": "IL",
      "iso": "",
      "flags": [
        "been"
      ],
      "lat": 41.526596,
      "lng": -88.08531,
      "name": "Joliet, IL, USA"
    },
    {
      "city": "Jackson",
      "county": "MS",
      "iso": "",
      "flags": [
        "been"
      ],
      "lat": 32.29847,
      "lng": -90.18961,
      "name": "Jackson, MS, USA"
    },
    {
      "city": "Corydon",
      "county": "IN",
      "iso": "",
      "flags": [
        "been"
      ],
      "lat": 38.211693,
      "lng": -86.1261,
      "name": "Corydon, IN, USA"
    },
    {
      "city": "Greenfield",
      "county": "IN",
      "iso": "",
      "flags": [
        "been"
      ],
      "lat": 39.78622,
      "lng": -85.77176,
      "name": "Greenfield, IN, USA"
    },
    {
      "city": "Marietta",
      "county": "GA",
      "iso": "",
      "flags": [
        "been"
      ],
      "lat": 33.952137,
      "lng": -84.550316,
      "name": "Marietta, GA, USA"
    },
    {
      "city": "Provincetown",
      "county": "MA",
      "iso": "",
      "flags": [
        "been"
      ],
      "lat": 42.056328,
      "lng": -70.17902,
      "name": "Provincetown, MA, USA"
    },
    {
      "city": "Springfield",
      "county": "MO",
      "iso": "",
      "flags": [
        "been"
      ],
      "lat": 37.211346,
      "lng": -93.29184,
      "name": "Springfield, MO, USA"
    },
    {
      "city": "Pisa",
      "county": "Italy",
      "iso": "IT",
      "flags": [
        "been"
      ],
      "lat": 43.71651,
      "lng": 10.400349,
      "name": "Pisa, Italy"
    },
    {
      "city": "Florence",
      "county": "Italy",
      "iso": "IT",
      "flags": [
        "been"
      ],
      "lat": 43.767918,
      "lng": 11.252379,
      "name": "Florence, Italy"
    },
    {
      "city": "Noblesville",
      "county": "IN",
      "iso": "",
      "flags": [
        "been"
      ],
      "lat": 40.04559,
      "lng": -86.014084,
      "name": "Noblesville, IN, USA"
    },
    {
      "city": "Columbus",
      "county": "IN",
      "iso": "",
      "flags": [
        "been"
      ],
      "lat": 39.223526,
      "lng": -85.89513,
      "name": "Columbus, IN, USA"
    },
    {
      "city": "Oakland",
      "county": "CA",
      "iso": "",
      "flags": [
        "been"
      ],
      "lat": 37.814106,
      "lng": -122.26433,
      "name": "Oakland, CA, USA"
    },
    {
      "city": "Grapevine",
      "county": "TX",
      "iso": "",
      "flags": [
        "been"
      ],
      "lat": 32.949238,
      "lng": -97.089066,
      "name": "Grapevine, TX, USA"
    },
    {
      "city": "Nags Head",
      "county": "NC",
      "iso": "",
      "flags": [
        "been"
      ],
      "lat": 35.9564,
      "lng": -75.62372,
      "name": "Nags Head, NC, USA"
    },
    {
      "city": "Theodore",
      "county": "AL",
      "iso": "",
      "flags": [
        "been"
      ],
      "lat": 30.543602,
      "lng": -88.18466,
      "name": "Theodore, AL, USA"
    },
    {
      "city": "Orange Beach",
      "county": "AL",
      "iso": "",
      "flags": [
        "been"
      ],
      "lat": 30.27165,
      "lng": -87.57399,
      "name": "Orange Beach, AL, USA"
    },
    {
      "city": "Cherokee",
      "county": "NC",
      "iso": "",
      "flags": [
        "been"
      ],
      "lat": 35.475548,
      "lng": -83.31861,
      "name": "Cherokee, NC, USA"
    },
    {
      "city": "Charlotte",
      "county": "NC",
      "iso": "",
      "flags": [
        "been"
      ],
      "lat": 35.226784,
      "lng": -80.84121,
      "name": "Charlotte, NC, USA"
    },
    {
      "city": "Clarksville",
      "county": "TN",
      "iso": "",
      "flags": [
        "been"
      ],
      "lat": 36.63258,
      "lng": -87.31551,
      "name": "Clarksville, TN, USA"
    },
    {
      "city": "Pass Christian",
      "county": "MS",
      "iso": "",
      "flags": [
        "been"
      ],
      "lat": 30.31575,
      "lng": -89.24754,
      "name": "Pass Christian, MS, USA"
    },
    {
      "city": "Pascagoula",
      "county": "MS",
      "iso": "",
      "flags": [
        "been"
      ],
      "lat": 30.3672,
      "lng": -88.55279,
      "name": "Pascagoula, MS, USA"
    },
    {
      "city": "Independence",
      "county": "OH",
      "iso": "",
      "flags": [
        "been"
      ],
      "lat": 41.36866,
      "lng": -81.6379,
      "name": "Independence, OH, USA"
    },
    {
      "city": "Holly Springs",
      "county": "MS",
      "iso": "",
      "flags": [
        "been"
      ],
      "lat": 34.769684,
      "lng": -89.44825,
      "name": "Holly Springs, MS, USA"
    },
    {
      "city": "Oklahoma City",
      "county": "OK",
      "iso": "",
      "flags": [
        "been"
      ],
      "lat": 35.50423,
      "lng": -97.44615,
      "name": "Oklahoma City, OK, USA"
    },
    {
      "city": "Huntington",
      "county": "WV",
      "iso": "",
      "flags": [
        "been"
      ],
      "lat": 38.4094,
      "lng": -82.42728,
      "name": "Huntington, WV, USA"
    },
    {
      "city": "Greenwood",
      "county": "IN",
      "iso": "",
      "flags": [
        "been"
      ],
      "lat": 39.62485,
      "lng": -86.11846,
      "name": "Greenwood, IN, USA"
    },
    {
      "city": "Catania",
      "county": "Italy",
      "iso": "IT",
      "flags": [
        "been"
      ],
      "lat": 37.508392,
      "lng": 15.080838,
      "name": "Catania, Italy"
    },
    {
      "city": "Bowling Green",
      "county": "KY",
      "iso": "",
      "flags": [
        "been"
      ],
      "lat": 36.988842,
      "lng": -86.44535,
      "name": "Bowling Green, KY, USA"
    },
    {
      "city": "Sechelt",
      "county": "British Columbia",
      "iso": "",
      "flags": [
        "been"
      ],
      "lat": 49.464485,
      "lng": -123.73385,
      "name": "Sechelt, British Columbia, Canada"
    },
    {
      "city": "Kathmandu",
      "county": "Nepal",
      "iso": "NP",
      "flags": [
        "been"
      ],
      "lat": 27.703995,
      "lng": 85.31114,
      "name": "Kathmandu, Nepal"
    },
    {
      "city": "Valencia",
      "county": "Spain",
      "iso": "ES",
      "flags": [
        "been"
      ],
      "lat": 39.473854,
      "lng": -0.377154,
      "name": "Valencia, Spain"
    },
    {
      "city": "Mount Holly",
      "county": "NC",
      "iso": "",
      "flags": [
        "been"
      ],
      "lat": 35.298195,
      "lng": -81.01611,
      "name": "Mount Holly, NC, USA"
    },
    {
      "city": "Miramar Beach",
      "county": "FL",
      "iso": "",
      "flags": [
        "been"
      ],
      "lat": 30.375336,
      "lng": -86.366325,
      "name": "Miramar Beach, FL, USA"
    },
    {
      "city": "Bloomington",
      "county": "MN",
      "iso": "",
      "flags": [
        "been"
      ],
      "lat": 44.825706,
      "lng": -93.30892,
      "name": "Bloomington, MN, USA"
    },
    {
      "city": "Troy",
      "county": "MI",
      "iso": "",
      "flags": [
        "been"
      ],
      "lat": 42.60654,
      "lng": -83.15076,
      "name": "Troy, MI, USA"
    },
    {
      "city": "Rome",
      "county": "Italy",
      "iso": "IT",
      "flags": [
        "been"
      ],
      "lat": 41.893623,
      "lng": 12.495978,
      "name": "Rome, Italy"
    },
    {
      "city": "Long Beach",
      "county": "MS",
      "iso": "",
      "flags": [
        "been"
      ],
      "lat": 30.354134,
      "lng": -89.14827,
      "name": "Long Beach, MS, USA"
    },
    {
      "city": "Iowa City",
      "county": "IA",
      "iso": "",
      "flags": [
        "been"
      ],
      "lat": 41.66079,
      "lng": -91.53166,
      "name": "Iowa City, IA, USA"
    },
    {
      "city": "Rosemary Beach",
      "county": "FL",
      "iso": "",
      "flags": [
        "been"
      ],
      "lat": 30.28353,
      "lng": -86.03049,
      "name": "Rosemary Beach, FL, USA"
    },
    {
      "city": "Lexington",
      "county": "KY",
      "iso": "",
      "flags": [
        "been"
      ],
      "lat": 38.048424,
      "lng": -84.49998,
      "name": "Lexington, KY, USA"
    },
    {
      "city": "Madison",
      "county": "IN",
      "iso": "",
      "flags": [
        "been"
      ],
      "lat": 38.736412,
      "lng": -85.38032,
      "name": "Madison, IN, USA"
    },
    {
      "city": "Cadiz",
      "county": "Spain",
      "iso": "ES",
      "flags": [
        "been"
      ],
      "lat": 36.530533,
      "lng": -6.295243,
      "name": "Cadiz, Spain"
    },
    {
      "city": "Nuremberg",
      "county": "Germany",
      "iso": "DE",
      "flags": [
        "been"
      ],
      "lat": 49.446163,
      "lng": 11.07039,
      "name": "Nuremberg, Germany"
    },
    {
      "city": "Pensacola Beach",
      "county": "FL",
      "iso": "",
      "flags": [
        "been"
      ],
      "lat": 30.332466,
      "lng": -87.13926,
      "name": "Pensacola Beach, FL, USA"
    },
    {
      "city": "Dallas",
      "county": "TX",
      "iso": "",
      "flags": [
        "been"
      ],
      "lat": 32.778534,
      "lng": -96.79938,
      "name": "Dallas, TX, USA"
    },
    {
      "city": "Stockholm",
      "county": "Sweden",
      "iso": "SE",
      "flags": [
        "been"
      ],
      "lat": 59.330135,
      "lng": 18.06151,
      "name": "Stockholm, Sweden"
    },
    {
      "city": "Redwood City",
      "county": "CA",
      "iso": "",
      "flags": [
        "been"
      ],
      "lat": 37.485798,
      "lng": -122.23875,
      "name": "Redwood City, CA, USA"
    },
    {
      "city": "Palo Alto",
      "county": "CA",
      "iso": "",
      "flags": [
        "been"
      ],
      "lat": 37.44622,
      "lng": -122.16124,
      "name": "Palo Alto, CA, USA"
    },
    {
      "city": "Ann Arbor",
      "county": "MI",
      "iso": "",
      "flags": [
        "been"
      ],
      "lat": 42.280178,
      "lng": -83.74461,
      "name": "Ann Arbor, MI, USA"
    },
    {
      "city": "Franconville",
      "county": "France",
      "iso": "FR",
      "flags": [
        "been"
      ],
      "lat": 48.98601,
      "lng": 2.229632,
      "name": "Franconville, France"
    },
    {
      "city": "Elizabethtown",
      "county": "KY",
      "iso": "",
      "flags": [
        "been"
      ],
      "lat": 37.69142,
      "lng": -85.86189,
      "name": "Elizabethtown, KY, USA"
    },
    {
      "city": "Geneva on the Lake",
      "county": "OH",
      "iso": "",
      "flags": [
        "been"
      ],
      "lat": 41.85904,
      "lng": -80.95319,
      "name": "Geneva on the Lake, OH, USA"
    },
    {
      "city": "Ixtapa",
      "county": "Mexico",
      "iso": "MX",
      "flags": [
        "want"
      ],
      "lat": 17.660627,
      "lng": -101.60135,
      "name": "Ixtapa, Mexico"
    },
    {
      "city": "London",
      "county": "UK",
      "iso": "GB",
      "flags": [
        "been",
        "want"
      ],
      "lat": 51.51924,
      "lng": -0.096654,
      "name": "London, UK"
    },
    {
      "city": "Liverpool",
      "county": "UK",
      "iso": "GB",
      "flags": [
        "been"
      ],
      "lat": 53.406662,
      "lng": -2.974251,
      "name": "Liverpool, UK"
    },
    {
      "city": "London",
      "county": "KY",
      "iso": "",
      "flags": [
        "been"
      ],
      "lat": 37.126236,
      "lng": -84.08463,
      "name": "London, KY, USA"
    },
    {
      "city": "Naples",
      "county": "Italy",
      "iso": "IT",
      "flags": [
        "been"
      ],
      "lat": 40.840416,
      "lng": 14.252355,
      "name": "Naples, Italy"
    },
    {
      "city": "Point Clear",
      "county": "AL",
      "iso": "",
      "flags": [
        "been"
      ],
      "lat": 30.483511,
      "lng": -87.9347,
      "name": "Point Clear, AL, USA"
    },
    {
      "city": "Rotterdam",
      "county": "The Netherlands",
      "iso": "NL",
      "flags": [
        "been"
      ],
      "lat": 51.920525,
      "lng": 4.480866,
      "name": "Rotterdam, The Netherlands"
    },
    {
      "city": "Palm Springs",
      "county": "CA",
      "iso": "",
      "flags": [
        "been"
      ],
      "lat": 33.832108,
      "lng": -116.54652,
      "name": "Palm Springs, CA, USA"
    },
    {
      "city": "Munich",
      "county": "Germany",
      "iso": "DE",
      "flags": [
        "been"
      ],
      "lat": 48.133827,
      "lng": 11.548443,
      "name": "Munich, Germany"
    },
    {
      "city": "Antwerp",
      "county": "Belgium",
      "iso": "BE",
      "flags": [
        "been"
      ],
      "lat": 51.219032,
      "lng": 4.409642,
      "name": "Antwerp, Belgium"
    },
    {
      "city": "Perth",
      "county": "Australia",
      "iso": "AU",
      "flags": [
        "want"
      ],
      "lat": -31.955471,
      "lng": 115.86148,
      "name": "Perth, Australia"
    },
    {
      "city": "Auckland",
      "county": "New Zealand",
      "iso": "NZ",
      "flags": [
        "been"
      ],
      "lat": -36.849407,
      "lng": 174.76103,
      "name": "Auckland, New Zealand"
    },
    {
      "city": "Hamburg",
      "county": "Germany",
      "iso": "DE",
      "flags": [
        "been"
      ],
      "lat": 53.55556,
      "lng": 10.013171,
      "name": "Hamburg, Germany"
    },
    {
      "city": "El Paso",
      "county": "TX",
      "iso": "",
      "flags": [
        "been"
      ],
      "lat": 31.78272,
      "lng": -106.45924,
      "name": "El Paso, TX, USA"
    },
    {
      "city": "Bloomington",
      "county": "IL",
      "iso": "",
      "flags": [
        "been"
      ],
      "lat": 40.485504,
      "lng": -88.99343,
      "name": "Bloomington, IL, USA"
    },
    {
      "city": "Lake City",
      "county": "FL",
      "iso": "",
      "flags": [
        "been"
      ],
      "lat": 30.195978,
      "lng": -82.69149,
      "name": "Lake City, FL, USA"
    },
    {
      "city": "Rio de Janeiro",
      "county": "Brazil",
      "iso": "BR",
      "flags": [
        "been"
      ],
      "lat": -22.91301,
      "lng": -43.18954,
      "name": "Rio de Janeiro, Brazil"
    },
    {
      "city": "Olathe",
      "county": "KS",
      "iso": "",
      "flags": [
        "been"
      ],
      "lat": 38.892696,
      "lng": -94.8108,
      "name": "Olathe, KS, USA"
    },
    {
      "city": "Cedar Rapids",
      "county": "IA",
      "iso": "",
      "flags": [
        "been"
      ],
      "lat": 42.01851,
      "lng": -91.64179,
      "name": "Cedar Rapids, IA, USA"
    },
    {
      "city": "Callaway",
      "county": "FL",
      "iso": "",
      "flags": [
        "been"
      ],
      "lat": 30.148842,
      "lng": -85.55515,
      "name": "Callaway, FL, USA"
    },
    {
      "city": "Fort Pierce",
      "county": "FL",
      "iso": "",
      "flags": [
        "been"
      ],
      "lat": 27.44869,
      "lng": -80.324066,
      "name": "Fort Pierce, FL, USA"
    },
    {
      "city": "Callahan",
      "county": "FL",
      "iso": "",
      "flags": [
        "been"
      ],
      "lat": 30.562147,
      "lng": -81.83447,
      "name": "Callahan, FL, USA"
    },
    {
      "city": "Antibes",
      "county": "France",
      "iso": "FR",
      "flags": [
        "been"
      ],
      "lat": 43.580097,
      "lng": 7.12079,
      "name": "Antibes, France"
    },
    {
      "city": "San Jose",
      "county": "CA",
      "iso": "",
      "flags": [
        "been"
      ],
      "lat": 37.329693,
      "lng": -121.89127,
      "name": "San Jose, CA, USA"
    },
    {
      "city": "Boulder City",
      "county": "NV",
      "iso": "",
      "flags": [
        "been"
      ],
      "lat": 35.97778,
      "lng": -114.83417,
      "name": "Boulder City, NV, USA"
    },
    {
      "city": "Niceville",
      "county": "FL",
      "iso": "",
      "flags": [
        "been"
      ],
      "lat": 30.530422,
      "lng": -86.495514,
      "name": "Niceville, FL, USA"
    },
    {
      "city": "Salem",
      "county": "IN",
      "iso": "",
      "flags": [
        "been"
      ],
      "lat": 38.606945,
      "lng": -86.09985,
      "name": "Salem, IN, USA"
    },
    {
      "city": "Flat Rock",
      "county": "NC",
      "iso": "",
      "flags": [
        "been"
      ],
      "lat": 35.270996,
      "lng": -82.441185,
      "name": "Flat Rock, NC, USA"
    },
    {
      "city": "Fort Myers Beach",
      "county": "FL",
      "iso": "",
      "flags": [
        "been"
      ],
      "lat": 26.451004,
      "lng": -81.949715,
      "name": "Fort Myers Beach, FL, USA"
    },
    {
      "city": "Kissimmee",
      "county": "FL",
      "iso": "",
      "flags": [
        "been"
      ],
      "lat": 28.295313,
      "lng": -81.408005,
      "name": "Kissimmee, FL, USA"
    },
    {
      "city": "Frankfurt",
      "county": "Germany",
      "iso": "DE",
      "flags": [
        "been"
      ],
      "lat": 50.107586,
      "lng": 8.675079,
      "name": "Frankfurt, Germany"
    },
    {
      "city": "Anchorage",
      "county": "AK",
      "iso": "",
      "flags": [
        "been"
      ],
      "lat": 61.216698,
      "lng": -149.8692,
      "name": "Anchorage, AK, USA"
    },
    {
      "city": "Fort Myers",
      "county": "FL",
      "iso": "",
      "flags": [
        "been"
      ],
      "lat": 26.63963,
      "lng": -81.86866,
      "name": "Fort Myers, FL, USA"
    },
    {
      "city": "San Luis Obispo",
      "county": "CA",
      "iso": "",
      "flags": [
        "want"
      ],
      "lat": 35.28908,
      "lng": -120.66296,
      "name": "San Luis Obispo, CA, USA"
    },
    {
      "city": "Little Rock",
      "county": "AR",
      "iso": "",
      "flags": [
        "been"
      ],
      "lat": 34.744453,
      "lng": -92.281,
      "name": "Little Rock, AR, USA"
    },
    {
      "city": "Wisconsin Dells",
      "county": "WI",
      "iso": "",
      "flags": [
        "been"
      ],
      "lat": 43.626472,
      "lng": -89.76746,
      "name": "Wisconsin Dells, WI, USA"
    },
    {
      "city": "Springfield",
      "county": "IL",
      "iso": "",
      "flags": [
        "been"
      ],
      "lat": 39.8047,
      "lng": -89.63761,
      "name": "Springfield, IL, USA"
    },
    {
      "city": "Saint Augustine",
      "county": "FL",
      "iso": "",
      "flags": [
        "been"
      ],
      "lat": 29.892288,
      "lng": -81.314316,
      "name": "Saint Augustine, FL, USA"
    },
    {
      "city": "Omaha",
      "county": "NE",
      "iso": "",
      "flags": [
        "been"
      ],
      "lat": 41.25835,
      "lng": -95.93467,
      "name": "Omaha, NE, USA"
    },
    {
      "city": "Bilbao",
      "county": "Spain",
      "iso": "ES",
      "flags": [
        "been"
      ],
      "lat": 43.262074,
      "lng": -2.931721,
      "name": "Bilbao, Spain"
    },
    {
      "city": "Avignon",
      "county": "France",
      "iso": "FR",
      "flags": [
        "been"
      ],
      "lat": 43.947704,
      "lng": 4.806896,
      "name": "Avignon, France"
    },
    {
      "city": "Sunnyvale",
      "county": "CA",
      "iso": "",
      "flags": [
        "been"
      ],
      "lat": 37.368843,
      "lng": -122.03455,
      "name": "Sunnyvale, CA, USA"
    },
    {
      "city": "Denver",
      "county": "CO",
      "iso": "",
      "flags": [
        "been"
      ],
      "lat": 39.73958,
      "lng": -104.98731,
      "name": "Denver, CO, USA"
    },
    {
      "city": "West Lafayette",
      "county": "IN",
      "iso": "",
      "flags": [
        "been"
      ],
      "lat": 40.42476,
      "lng": -86.908066,
      "name": "West Lafayette, IN, USA"
    },
    {
      "city": "Fort Walton Beach",
      "county": "FL",
      "iso": "",
      "flags": [
        "been",
        "fave"
      ],
      "lat": 30.412554,
      "lng": -86.61156,
      "name": "Fort Walton Beach, FL, USA"
    },
    {
      "city": "New York City",
      "county": "NY",
      "iso": "",
      "flags": [
        "been"
      ],
      "lat": 40.713238,
      "lng": -74.00584,
      "name": "New York City, NY, USA"
    },
    {
      "city": "Arles",
      "county": "France",
      "iso": "FR",
      "flags": [
        "been"
      ],
      "lat": 43.690647,
      "lng": 4.634936,
      "name": "Arles, France"
    },
    {
      "city": "Cape Coral",
      "county": "FL",
      "iso": "",
      "flags": [
        "been"
      ],
      "lat": 26.562254,
      "lng": -81.94469,
      "name": "Cape Coral, FL, USA"
    },
    {
      "city": "Cape Canaveral",
      "county": "FL",
      "iso": "",
      "flags": [
        "been"
      ],
      "lat": 28.39259,
      "lng": -80.60845,
      "name": "Cape Canaveral, FL, USA"
    },
    {
      "city": "Melbourne",
      "county": "Australia",
      "iso": "AU",
      "flags": [
        "been"
      ],
      "lat": -37.818924,
      "lng": 144.95778,
      "name": "Melbourne, Australia"
    },
    {
      "city": "Lawrence",
      "county": "KS",
      "iso": "",
      "flags": [
        "been"
      ],
      "lat": 38.972103,
      "lng": -95.2757,
      "name": "Lawrence, KS, USA"
    },
    {
      "city": "Peoria",
      "county": "IL",
      "iso": "",
      "flags": [
        "been"
      ],
      "lat": 40.716404,
      "lng": -89.57411,
      "name": "Peoria, IL, USA"
    },
    {
      "city": "Santa Claus",
      "county": "IN",
      "iso": "",
      "flags": [
        "been"
      ],
      "lat": 38.119247,
      "lng": -86.91424,
      "name": "Santa Claus, IN, USA"
    },
    {
      "city": "Jerusalem",
      "county": "Israel",
      "iso": "IL",
      "flags": [
        "been"
      ],
      "lat": 31.78013,
      "lng": 35.215874,
      "name": "Jerusalem, Israel"
    },
    {
      "city": "Tokyo",
      "county": "Japan",
      "iso": "JP",
      "flags": [
        "been"
      ],
      "lat": 35.680565,
      "lng": 139.759,
      "name": "Tokyo, Japan"
    },
    {
      "city": "Mississauga",
      "county": "Ontario",
      "iso": "",
      "flags": [
        "been"
      ],
      "lat": 43.59208,
      "lng": -79.592384,
      "name": "Mississauga, Ontario, Canada"
    },
    {
      "city": "Seattle",
      "county": "WA",
      "iso": "",
      "flags": [
        "been"
      ],
      "lat": 47.607243,
      "lng": -122.33324,
      "name": "Seattle, WA, USA"
    },
    {
      "city": "Niagara Falls",
      "county": "Ontario",
      "iso": "",
      "flags": [
        "been"
      ],
      "lat": 43.101624,
      "lng": -79.07091,
      "name": "Niagara Falls, Ontario, Canada"
    },
    {
      "city": "Belfast",
      "county": "UK",
      "iso": "GB",
      "flags": [
        "been"
      ],
      "lat": 54.59679,
      "lng": -5.930921,
      "name": "Belfast, UK"
    },
    {
      "city": "Lake Placid",
      "county": "FL",
      "iso": "",
      "flags": [
        "been"
      ],
      "lat": 27.292356,
      "lng": -81.3587,
      "name": "Lake Placid, FL, USA"
    },
    {
      "city": "Cincinnati",
      "county": "OH",
      "iso": "",
      "flags": [
        "been"
      ],
      "lat": 39.10216,
      "lng": -84.514015,
      "name": "Cincinnati, OH, USA"
    },
    {
      "city": "Titusville",
      "county": "FL",
      "iso": "",
      "flags": [
        "been"
      ],
      "lat": 28.618992,
      "lng": -80.80091,
      "name": "Titusville, FL, USA"
    },
    {
      "city": "North Miami Beach",
      "county": "FL",
      "iso": "",
      "flags": [
        "been"
      ],
      "lat": 25.92827,
      "lng": -80.15505,
      "name": "North Miami Beach, FL, USA"
    },
    {
      "city": "Casablanca",
      "county": "Morocco",
      "iso": "MA",
      "flags": [
        "want"
      ],
      "lat": 33.596664,
      "lng": -7.61232,
      "name": "Casablanca, Morocco"
    },
    {
      "city": "Istanbul",
      "county": "Turkey",
      "iso": "TR",
      "flags": [
        "been"
      ],
      "lat": 41.00986,
      "lng": 28.95707,
      "name": "Istanbul, Turkey"
    },
    {
      "city": "Scottsburg",
      "county": "IN",
      "iso": "",
      "flags": [
        "been"
      ],
      "lat": 38.68581,
      "lng": -85.76992,
      "name": "Scottsburg, IN, USA"
    },
    {
      "city": "Fes",
      "county": "Morocco",
      "iso": "MA",
      "flags": [
        "been"
      ],
      "lat": 34.026806,
      "lng": -5.004349,
      "name": "Fes, Morocco"
    },
    {
      "city": "Gainesville",
      "county": "FL",
      "iso": "",
      "flags": [
        "been"
      ],
      "lat": 29.615269,
      "lng": -82.37273,
      "name": "Gainesville, FL, USA"
    },
    {
      "city": "Sao Paulo",
      "county": "Brazil",
      "iso": "BR",
      "flags": [
        "been"
      ],
      "lat": -23.550455,
      "lng": -46.637535,
      "name": "Sao Paulo, Brazil"
    },
    {
      "city": "Marrakech",
      "county": "Morocco",
      "iso": "MA",
      "flags": [
        "want"
      ],
      "lat": 31.632172,
      "lng": -8.002955,
      "name": "Marrakech, Morocco"
    },
    {
      "city": "Bremen",
      "county": "Germany",
      "iso": "DE",
      "flags": [
        "been"
      ],
      "lat": 53.083763,
      "lng": 8.819797,
      "name": "Bremen, Germany"
    },
    {
      "city": "Lahaina",
      "county": "HI",
      "iso": "",
      "flags": [
        "been"
      ],
      "lat": 20.877272,
      "lng": -156.68127,
      "name": "Lahaina, HI, USA"
    },
    {
      "city": "San Rafael",
      "county": "CA",
      "iso": "",
      "flags": [
        "been"
      ],
      "lat": 37.975048,
      "lng": -122.53282,
      "name": "San Rafael, CA, USA"
    },
    {
      "city": "Celebration",
      "county": "FL",
      "iso": "",
      "flags": [
        "been"
      ],
      "lat": 28.317913,
      "lng": -81.54107,
      "name": "Celebration, FL, USA"
    },
    {
      "city": "Cedar Key",
      "county": "FL",
      "iso": "",
      "flags": [
        "been"
      ],
      "lat": 29.135895,
      "lng": -83.03533,
      "name": "Cedar Key, FL, USA"
    },
    {
      "city": "White Sulphur Springs",
      "county": "WV",
      "iso": "",
      "flags": [
        "been"
      ],
      "lat": 37.796837,
      "lng": -80.29896,
      "name": "White Sulphur Springs, WV, USA"
    },
    {
      "city": "Williamsburg",
      "county": "VA",
      "iso": "",
      "flags": [
        "been"
      ],
      "lat": 37.279034,
      "lng": -76.71141,
      "name": "Williamsburg, VA, USA"
    },
    {
      "city": "Berlin",
      "county": "Germany",
      "iso": "DE",
      "flags": [
        "been"
      ],
      "lat": 52.51959,
      "lng": 13.397209,
      "name": "Berlin, Germany"
    },
    {
      "city": "Valdosta",
      "county": "GA",
      "iso": "",
      "flags": [
        "been"
      ],
      "lat": 30.831156,
      "lng": -83.27854,
      "name": "Valdosta, GA, USA"
    },
    {
      "city": "Seville",
      "county": "Spain",
      "iso": "ES",
      "flags": [
        "been"
      ],
      "lat": 37.383396,
      "lng": -5.990674,
      "name": "Seville, Spain"
    },
    {
      "city": "Provo",
      "county": "UT",
      "iso": "",
      "flags": [
        "been"
      ],
      "lat": 40.232853,
      "lng": -111.66351,
      "name": "Provo, UT, USA"
    },
    {
      "city": "Naperville",
      "county": "IL",
      "iso": "",
      "flags": [
        "been"
      ],
      "lat": 41.78957,
      "lng": -88.14954,
      "name": "Naperville, IL, USA"
    },
    {
      "city": "Overland Park",
      "county": "KS",
      "iso": "",
      "flags": [
        "been"
      ],
      "lat": 38.987457,
      "lng": -94.66737,
      "name": "Overland Park, KS, USA"
    },
    {
      "city": "Branson",
      "county": "MO",
      "iso": "",
      "flags": [
        "been"
      ],
      "lat": 36.641136,
      "lng": -93.21934,
      "name": "Branson, MO, USA"
    },
    {
      "city": "Schaumburg",
      "county": "IL",
      "iso": "",
      "flags": [
        "been"
      ],
      "lat": 42.02709,
      "lng": -88.079544,
      "name": "Schaumburg, IL, USA"
    },
    {
      "city": "Branson West",
      "county": "MO",
      "iso": "",
      "flags": [
        "want"
      ],
      "lat": 36.698593,
      "lng": -93.36944,
      "name": "Branson West, MO, USA"
    },
    {
      "city": "Seymour",
      "county": "IN",
      "iso": "",
      "flags": [
        "been"
      ],
      "lat": 38.958267,
      "lng": -85.88937,
      "name": "Seymour, IN, USA"
    },
    {
      "city": "San Jose",
      "county": "Costa Rica",
      "iso": "CR",
      "flags": [
        "been",
        "fave"
      ],
      "lat": 9.930845,
      "lng": -84.07983,
      "name": "San Jose, Costa Rica"
    },
    {
      "city": "Yokohama",
      "county": "Japan",
      "iso": "JP",
      "flags": [
        "been"
      ],
      "lat": 35.454258,
      "lng": 139.56802,
      "name": "Yokohama, Japan"
    },
    {
      "city": "Port Clinton",
      "county": "OH",
      "iso": "",
      "flags": [
        "been"
      ],
      "lat": 41.513237,
      "lng": -82.93869,
      "name": "Port Clinton, OH, USA"
    },
    {
      "city": "Gothenburg",
      "county": "Sweden",
      "iso": "SE",
      "flags": [
        "want"
      ],
      "lat": 57.70382,
      "lng": 11.972486,
      "name": "Gothenburg, Sweden"
    },
    {
      "city": "Bellingham",
      "county": "WA",
      "iso": "",
      "flags": [
        "been"
      ],
      "lat": 48.75663,
      "lng": -122.4857,
      "name": "Bellingham, WA, USA"
    },
    {
      "city": "Clearwater",
      "county": "FL",
      "iso": "",
      "flags": [
        "been"
      ],
      "lat": 27.96279,
      "lng": -82.799706,
      "name": "Clearwater, FL, USA"
    },
    {
      "city": "Santa Monica",
      "county": "CA",
      "iso": "",
      "flags": [
        "been"
      ],
      "lat": 34.02762,
      "lng": -118.48133,
      "name": "Santa Monica, CA, USA"
    },
    {
      "city": "Memphis",
      "county": "TN",
      "iso": "",
      "flags": [
        "been"
      ],
      "lat": 35.15051,
      "lng": -90.04829,
      "name": "Memphis, TN, USA"
    },
    {
      "city": "Burlington",
      "county": "Ontario",
      "iso": "",
      "flags": [
        "been"
      ],
      "lat": 43.323044,
      "lng": -79.79723,
      "name": "Burlington, Ontario, Canada"
    },
    {
      "city": "Shelbyville",
      "county": "IN",
      "iso": "",
      "flags": [
        "been"
      ],
      "lat": 39.52447,
      "lng": -85.77437,
      "name": "Shelbyville, IN, USA"
    },
    {
      "city": "Santa Barbara",
      "county": "CA",
      "iso": "",
      "flags": [
        "been"
      ],
      "lat": 34.4192,
      "lng": -119.69858,
      "name": "Santa Barbara, CA, USA"
    },
    {
      "city": "St. Marys",
      "county": "GA",
      "iso": "",
      "flags": [
        "been"
      ],
      "lat": 30.731838,
      "lng": -81.54666,
      "name": "St. Marys, GA, USA"
    },
    {
      "city": "Versailles",
      "county": "KY",
      "iso": "",
      "flags": [
        "been"
      ],
      "lat": 38.05258,
      "lng": -84.72995,
      "name": "Versailles, KY, USA"
    },
    {
      "city": "Nice",
      "county": "France",
      "iso": "FR",
      "flags": [
        "been",
        "want"
      ],
      "lat": 43.700638,
      "lng": 7.276729,
      "name": "Nice, France"
    },
    {
      "city": "Dayton",
      "county": "OH",
      "iso": "",
      "flags": [
        "been"
      ],
      "lat": 39.76526,
      "lng": -84.20984,
      "name": "Dayton, OH, USA"
    },
    {
      "city": "Land O Lakes",
      "county": "FL",
      "iso": "",
      "flags": [
        "been"
      ],
      "lat": 28.216759,
      "lng": -82.44939,
      "name": "Land O Lakes, FL, USA"
    },
    {
      "city": "St. Johns",
      "county": "FL",
      "iso": "",
      "flags": [
        "been"
      ],
      "lat": 30.077673,
      "lng": -81.5527,
      "name": "St. Johns, FL, USA"
    },
    {
      "city": "Queenstown",
      "county": "New Zealand",
      "iso": "NZ",
      "flags": [
        "been"
      ],
      "lat": -45.03106,
      "lng": 168.66235,
      "name": "Queenstown, New Zealand"
    },
    {
      "city": "Newport",
      "county": "KY",
      "iso": "",
      "flags": [
        "been"
      ],
      "lat": 39.094646,
      "lng": -84.49594,
      "name": "Newport, KY, USA"
    },
    {
      "city": "Akron",
      "county": "OH",
      "iso": "",
      "flags": [
        "been"
      ],
      "lat": 41.08304,
      "lng": -81.52406,
      "name": "Akron, OH, USA"
    },
    {
      "city": "Bruges",
      "county": "Belgium",
      "iso": "BE",
      "flags": [
        "been"
      ],
      "lat": 51.208893,
      "lng": 3.22457,
      "name": "Bruges, Belgium"
    },
    {
      "city": "Christchurch",
      "county": "New Zealand",
      "iso": "NZ",
      "flags": [
        "been"
      ],
      "lat": -43.532024,
      "lng": 172.63718,
      "name": "Christchurch, New Zealand"
    },
    {
      "city": "Cannes",
      "county": "France",
      "iso": "FR",
      "flags": [
        "been"
      ],
      "lat": 43.550236,
      "lng": 7.013397,
      "name": "Cannes, France"
    },
    {
      "city": "Halifax",
      "county": "Nova Scotia",
      "iso": "",
      "flags": [
        "want"
      ],
      "lat": 44.646557,
      "lng": -63.574856,
      "name": "Halifax, Nova Scotia, Canada"
    },
    {
      "city": "Portland",
      "county": "ME",
      "iso": "",
      "flags": [
        "been"
      ],
      "lat": 43.655815,
      "lng": -70.2534,
      "name": "Portland, ME, USA"
    },
    {
      "city": "Irving",
      "county": "TX",
      "iso": "",
      "flags": [
        "been"
      ],
      "lat": 32.897224,
      "lng": -96.95908,
      "name": "Irving, TX, USA"
    },
    {
      "city": "Cocoa Beach",
      "county": "FL",
      "iso": "",
      "flags": [
        "been"
      ],
      "lat": 28.313923,
      "lng": -80.61369,
      "name": "Cocoa Beach, FL, USA"
    },
    {
      "city": "South Bend",
      "county": "IN",
      "iso": "",
      "flags": [
        "been"
      ],
      "lat": 41.68436,
      "lng": -86.237206,
      "name": "South Bend, IN, USA"
    },
    {
      "city": "Snowshoe",
      "county": "WV",
      "iso": "",
      "flags": [
        "been"
      ],
      "lat": 38.413807,
      "lng": -79.99712,
      "name": "Snowshoe, WV, USA"
    },
    {
      "city": "Richmond",
      "county": "VA",
      "iso": "",
      "flags": [
        "been"
      ],
      "lat": 37.54355,
      "lng": -77.436264,
      "name": "Richmond, VA, USA"
    },
    {
      "city": "Saratoga",
      "county": "CA",
      "iso": "",
      "flags": [
        "been"
      ],
      "lat": 37.257225,
      "lng": -122.03397,
      "name": "Saratoga, CA, USA"
    },
    {
      "city": "Atlanta",
      "county": "GA",
      "iso": "",
      "flags": [
        "been"
      ],
      "lat": 33.75731,
      "lng": -84.39015,
      "name": "Atlanta, GA, USA"
    },
    {
      "city": "Saint-Malo",
      "county": "France",
      "iso": "FR",
      "flags": [
        "been"
      ],
      "lat": 48.65,
      "lng": -2.01667,
      "name": "Saint-Malo, France"
    },
    {
      "city": "Waterloo",
      "county": "IA",
      "iso": "",
      "flags": [
        "been"
      ],
      "lat": 42.4949,
      "lng": -92.34154,
      "name": "Waterloo, IA, USA"
    },
    {
      "city": "Leesburg",
      "county": "FL",
      "iso": "",
      "flags": [
        "been"
      ],
      "lat": 28.815115,
      "lng": -81.874466,
      "name": "Leesburg, FL, USA"
    },
    {
      "city": "Eze",
      "county": "France",
      "iso": "FR",
      "flags": [
        "been"
      ],
      "lat": 43.72769,
      "lng": 7.36177,
      "name": "Eze, France"
    },
    {
      "city": "Victor",
      "county": "NY",
      "iso": "",
      "flags": [
        "been"
      ],
      "lat": 42.982674,
      "lng": -77.41976,
      "name": "Victor, NY, USA"
    },
    {
      "city": "Tunica",
      "county": "MS",
      "iso": "",
      "flags": [
        "been"
      ],
      "lat": 34.68782,
      "lng": -90.38158,
      "name": "Tunica, MS, USA"
    },
    {
      "city": "Marseille",
      "county": "France",
      "iso": "FR",
      "flags": [
        "been"
      ],
      "lat": 43.2964,
      "lng": 5.37,
      "name": "Marseille, France"
    },
    {
      "city": "Shepherdsville",
      "county": "KY",
      "iso": "",
      "flags": [
        "been"
      ],
      "lat": 38.008213,
      "lng": -85.78226,
      "name": "Shepherdsville, KY, USA"
    },
    {
      "city": "Dusseldorf",
      "county": "Germany",
      "iso": "DE",
      "flags": [
        "been"
      ],
      "lat": 51.223465,
      "lng": 6.778337,
      "name": "Dusseldorf, Germany"
    },
    {
      "city": "Cologne",
      "county": "Germany",
      "iso": "DE",
      "flags": [
        "been"
      ],
      "lat": 50.939663,
      "lng": 6.959839,
      "name": "Cologne, Germany"
    },
    {
      "city": "Crystal River",
      "county": "FL",
      "iso": "",
      "flags": [
        "been"
      ],
      "lat": 29.009338,
      "lng": -82.56911,
      "name": "Crystal River, FL, USA"
    },
    {
      "city": "Manhattan",
      "county": "KS",
      "iso": "",
      "flags": [
        "been"
      ],
      "lat": 39.18619,
      "lng": -96.55955,
      "name": "Manhattan, KS, USA"
    },
    {
      "city": "Cody",
      "county": "WY",
      "iso": "",
      "flags": [
        "been"
      ],
      "lat": 44.526,
      "lng": -109.07085,
      "name": "Cody, WY, USA"
    },
    {
      "city": "Paducah",
      "county": "KY",
      "iso": "",
      "flags": [
        "been"
      ],
      "lat": 37.08601,
      "lng": -88.59356,
      "name": "Paducah, KY, USA"
    },
    {
      "city": "Louisville",
      "county": "KY",
      "iso": "",
      "flags": [
        "been",
        "fave"
      ],
      "lat": 38.252342,
      "lng": -85.750656,
      "name": "Louisville, KY, USA"
    },
    {
      "city": "Crestview",
      "county": "FL",
      "iso": "",
      "flags": [
        "been"
      ],
      "lat": 30.820618,
      "lng": -86.52103,
      "name": "Crestview, FL, USA"
    },
    {
      "city": "Owensboro",
      "county": "KY",
      "iso": "",
      "flags": [
        "been"
      ],
      "lat": 37.76755,
      "lng": -87.10902,
      "name": "Owensboro, KY, USA"
    },
    {
      "city": "Barcelona",
      "county": "Spain",
      "iso": "ES",
      "flags": [
        "been"
      ],
      "lat": 41.385597,
      "lng": 2.169576,
      "name": "Barcelona, Spain"
    },
    {
      "city": "Saint-Martin",
      "county": "St. Maarten-St. Martin",
      "iso": "",
      "flags": [
        "been"
      ],
      "lat": 18.0667,
      "lng": -63.05,
      "name": "Saint-Martin, St. Maarten-St. Martin"
    },
    {
      "city": "Shelbyville",
      "county": "KY",
      "iso": "",
      "flags": [
        "been"
      ],
      "lat": 38.21,
      "lng": -85.266,
      "name": "Shelbyville, KY, USA"
    },
    {
      "city": "West Des Moines",
      "county": "IA",
      "iso": "",
      "flags": [
        "been"
      ],
      "lat": 41.56997,
      "lng": -93.75192,
      "name": "West Des Moines, IA, USA"
    },
    {
      "city": "Isla Tierra Bomba",
      "county": "Colombia",
      "iso": "CO",
      "flags": [
        "been"
      ],
      "lat": 10.353175,
      "lng": -75.57374,
      "name": "Isla Tierra Bomba, Colombia"
    },
    {
      "city": "Phnom Penh",
      "county": "Cambodia",
      "iso": "KH",
      "flags": [
        "want"
      ],
      "lat": 11.563291,
      "lng": 104.92013,
      "name": "Phnom Penh, Cambodia"
    },
    {
      "city": "Put in Bay",
      "county": "OH",
      "iso": "",
      "flags": [
        "been"
      ],
      "lat": 41.6496,
      "lng": -82.816315,
      "name": "Put in Bay, OH, USA"
    },
    {
      "city": "Davie",
      "county": "FL",
      "iso": "",
      "flags": [
        "been"
      ],
      "lat": 26.067617,
      "lng": -80.23068,
      "name": "Davie, FL, USA"
    },
    {
      "city": "Cheyenne",
      "county": "WY",
      "iso": "",
      "flags": [
        "been"
      ],
      "lat": 41.136456,
      "lng": -104.81794,
      "name": "Cheyenne, WY, USA"
    },
    {
      "city": "Saint-Tropez",
      "county": "France",
      "iso": "FR",
      "flags": [
        "been"
      ],
      "lat": 43.26859,
      "lng": 6.640098,
      "name": "Saint-Tropez, France"
    },
    {
      "city": "Winnipeg",
      "county": "Manitoba",
      "iso": "",
      "flags": [
        "been"
      ],
      "lat": 49.879974,
      "lng": -97.13828,
      "name": "Winnipeg, Manitoba, Canada"
    },
    {
      "city": "Casper",
      "county": "WY",
      "iso": "",
      "flags": [
        "been"
      ],
      "lat": 42.817303,
      "lng": -106.37162,
      "name": "Casper, WY, USA"
    },
    {
      "city": "Rincon",
      "county": "Puerto Rico",
      "iso": "PR",
      "flags": [
        "been"
      ],
      "lat": 18.329197,
      "lng": -67.25065,
      "name": "Rincon, Puerto Rico"
    },
    {
      "city": "Cape San Blas",
      "county": "FL",
      "iso": "",
      "flags": [
        "been"
      ],
      "lat": 29.668291,
      "lng": -85.3524,
      "name": "Cape San Blas, FL, USA"
    },
    {
      "city": "Daytona Beach",
      "county": "FL",
      "iso": "",
      "flags": [
        "been"
      ],
      "lat": 29.20357,
      "lng": -81.0406,
      "name": "Daytona Beach, FL, USA"
    },
    {
      "city": "Dade City",
      "county": "FL",
      "iso": "",
      "flags": [
        "been"
      ],
      "lat": 28.33861,
      "lng": -82.189,
      "name": "Dade City, FL, USA"
    },
    {
      "city": "Philadelphia",
      "county": "PA",
      "iso": "",
      "flags": [
        "been"
      ],
      "lat": 39.952362,
      "lng": -75.163765,
      "name": "Philadelphia, PA, USA"
    },
    {
      "city": "Monte-Carlo",
      "county": "Monaco",
      "iso": "MC",
      "flags": [
        "been"
      ],
      "lat": 43.740532,
      "lng": 7.425427,
      "name": "Monte-Carlo, Monaco"
    },
    {
      "city": "Woodbine",
      "county": "GA",
      "iso": "",
      "flags": [
        "been"
      ],
      "lat": 30.957195,
      "lng": -81.71879,
      "name": "Woodbine, GA, USA"
    },
    {
      "city": "Sioux City",
      "county": "IA",
      "iso": "",
      "flags": [
        "been"
      ],
      "lat": 42.496483,
      "lng": -96.40369,
      "name": "Sioux City, IA, USA"
    },
    {
      "city": "Merrillville",
      "county": "IN",
      "iso": "",
      "flags": [
        "been"
      ],
      "lat": 41.462753,
      "lng": -87.334496,
      "name": "Merrillville, IN, USA"
    },
    {
      "city": "Gettysburg",
      "county": "PA",
      "iso": "",
      "flags": [
        "been"
      ],
      "lat": 39.82983,
      "lng": -77.230095,
      "name": "Gettysburg, PA, USA"
    },
    {
      "city": "Davenport",
      "county": "FL",
      "iso": "",
      "flags": [
        "been"
      ],
      "lat": 28.166758,
      "lng": -81.60409,
      "name": "Davenport, FL, USA"
    },
    {
      "city": "Washington DC",
      "county": "DC",
      "iso": "",
      "flags": [
        "been"
      ],
      "lat": 38.889603,
      "lng": -77.009476,
      "name": "Washington DC, DC, USA"
    },
    {
      "city": "Hershey",
      "county": "PA",
      "iso": "",
      "flags": [
        "been"
      ],
      "lat": 40.28631,
      "lng": -76.66909,
      "name": "Hershey, PA, USA"
    },
    {
      "city": "Waveland",
      "county": "MS",
      "iso": "",
      "flags": [
        "been"
      ],
      "lat": 30.269207,
      "lng": -89.38277,
      "name": "Waveland, MS, USA"
    },
    {
      "city": "Great Falls",
      "county": "MT",
      "iso": "",
      "flags": [
        "been"
      ],
      "lat": 47.4999,
      "lng": -111.30647,
      "name": "Great Falls, MT, USA"
    },
    {
      "city": "Victoria",
      "county": "British Columbia",
      "iso": "",
      "flags": [
        "been"
      ],
      "lat": 48.422108,
      "lng": -123.36163,
      "name": "Victoria, British Columbia, Canada"
    },
    {
      "city": "Lebanon",
      "county": "OH",
      "iso": "",
      "flags": [
        "been"
      ],
      "lat": 39.43534,
      "lng": -84.20299,
      "name": "Lebanon, OH, USA"
    },
    {
      "city": "Salzburg",
      "county": "Austria",
      "iso": "AT",
      "flags": [
        "been"
      ],
      "lat": 47.8,
      "lng": 13.041957,
      "name": "Salzburg, Austria"
    },
    {
      "city": "Whistler",
      "county": "British Columbia",
      "iso": "",
      "flags": [
        "been"
      ],
      "lat": 50.117348,
      "lng": -122.95754,
      "name": "Whistler, British Columbia, Canada"
    },
    {
      "city": "Bangkok",
      "county": "Thailand",
      "iso": "TH",
      "flags": [
        "been"
      ],
      "lat": 13.745595,
      "lng": 100.53466,
      "name": "Bangkok, Thailand"
    },
    {
      "city": "Innsbruck",
      "county": "Austria",
      "iso": "AT",
      "flags": [
        "been"
      ],
      "lat": 47.264565,
      "lng": 11.39441,
      "name": "Innsbruck, Austria"
    },
    {
      "city": "Chiang Mai",
      "county": "Thailand",
      "iso": "TH",
      "flags": [
        "been"
      ],
      "lat": 18.800703,
      "lng": 99.01729,
      "name": "Chiang Mai, Thailand"
    },
    {
      "city": "Vancouver",
      "county": "British Columbia",
      "iso": "",
      "flags": [
        "been",
        "fave"
      ],
      "lat": 49.2808,
      "lng": -123.11672,
      "name": "Vancouver, British Columbia, Canada"
    },
    {
      "city": "Bavaro",
      "county": "Dominican Republic",
      "iso": "DO",
      "flags": [
        "been"
      ],
      "lat": 18.69634,
      "lng": -68.434,
      "name": "Bavaro, Dominican Republic"
    },
    {
      "city": "Montpellier",
      "county": "France",
      "iso": "FR",
      "flags": [
        "been"
      ],
      "lat": 43.606926,
      "lng": 3.880531,
      "name": "Montpellier, France"
    },
    {
      "city": "Destin",
      "county": "FL",
      "iso": "",
      "flags": [
        "been"
      ],
      "lat": 30.393393,
      "lng": -86.49518,
      "name": "Destin, FL, USA"
    },
    {
      "city": "Somerset",
      "county": "KY",
      "iso": "",
      "flags": [
        "been"
      ],
      "lat": 37.0932,
      "lng": -84.60127,
      "name": "Somerset, KY, USA"
    },
    {
      "city": "Norfolk",
      "county": "VA",
      "iso": "",
      "flags": [
        "been"
      ],
      "lat": 36.851547,
      "lng": -76.28941,
      "name": "Norfolk, VA, USA"
    },
    {
      "city": "Mishawaka",
      "county": "IN",
      "iso": "",
      "flags": [
        "been"
      ],
      "lat": 41.66375,
      "lng": -86.16111,
      "name": "Mishawaka, IN, USA"
    },
    {
      "city": "Hollywood",
      "county": "FL",
      "iso": "",
      "flags": [
        "been"
      ],
      "lat": 26.012745,
      "lng": -80.17997,
      "name": "Hollywood, FL, USA"
    },
    {
      "city": "Henderson",
      "county": "KY",
      "iso": "",
      "flags": [
        "been"
      ],
      "lat": 37.838146,
      "lng": -87.5912,
      "name": "Henderson, KY, USA"
    },
    {
      "city": "Hanoi",
      "county": "Vietnam",
      "iso": "VN",
      "flags": [
        "been"
      ],
      "lat": 21.033333,
      "lng": 105.84962,
      "name": "Hanoi, Vietnam"
    },
    {
      "city": "Dresden",
      "county": "Germany",
      "iso": "DE",
      "flags": [
        "been"
      ],
      "lat": 51.050453,
      "lng": 13.73823,
      "name": "Dresden, Germany"
    },
    {
      "city": "Ho Chi Minh City",
      "county": "Vietnam",
      "iso": "VN",
      "flags": [
        "been"
      ],
      "lat": 10.82293,
      "lng": 106.62975,
      "name": "Ho Chi Minh City, Vietnam"
    },
    {
      "city": "Plainfield",
      "county": "IN",
      "iso": "",
      "flags": [
        "been"
      ],
      "lat": 39.695763,
      "lng": -86.338875,
      "name": "Plainfield, IN, USA"
    },
    {
      "city": "Winston Salem",
      "county": "NC",
      "iso": "",
      "flags": [
        "been"
      ],
      "lat": 36.103188,
      "lng": -80.232735,
      "name": "Winston Salem, NC, USA"
    },
    {
      "city": "Mitchell",
      "county": "IN",
      "iso": "",
      "flags": [
        "been"
      ],
      "lat": 38.72963,
      "lng": -86.47068,
      "name": "Mitchell, IN, USA"
    },
    {
      "city": "Erie",
      "county": "PA",
      "iso": "",
      "flags": [
        "been"
      ],
      "lat": 42.097584,
      "lng": -80.07629,
      "name": "Erie, PA, USA"
    },
    {
      "city": "Indianapolis",
      "county": "IN",
      "iso": "",
      "flags": [
        "been"
      ],
      "lat": 39.76815,
      "lng": -86.16024,
      "name": "Indianapolis, IN, USA"
    },
    {
      "city": "Billings",
      "county": "MT",
      "iso": "",
      "flags": [
        "been"
      ],
      "lat": 45.772343,
      "lng": -108.53475,
      "name": "Billings, MT, USA"
    },
    {
      "city": "Russellville",
      "county": "AL",
      "iso": "",
      "flags": [
        "been"
      ],
      "lat": 34.50787,
      "lng": -87.72864,
      "name": "Russellville, AL, USA"
    },
    {
      "city": "Amsterdam",
      "county": "The Netherlands",
      "iso": "NL",
      "flags": [
        "been"
      ],
      "lat": 52.37,
      "lng": 4.89,
      "name": "Amsterdam, The Netherlands"
    },
    {
      "city": "Cabo San Lucas",
      "county": "Mexico",
      "iso": "MX",
      "flags": [
        "want"
      ],
      "lat": 22.891026,
      "lng": -109.91877,
      "name": "Cabo San Lucas, Mexico"
    },
    {
      "city": "Fargo",
      "county": "ND",
      "iso": "",
      "flags": [
        "been"
      ],
      "lat": 46.879852,
      "lng": -96.78814,
      "name": "Fargo, ND, USA"
    },
    {
      "city": "Mobile",
      "county": "AL",
      "iso": "",
      "flags": [
        "been"
      ],
      "lat": 30.690891,
      "lng": -88.04425,
      "name": "Mobile, AL, USA"
    },
    {
      "city": "Moscow",
      "county": "Russia",
      "iso": "RU",
      "flags": [
        "want"
      ],
      "lat": 55.751865,
      "lng": 37.622437,
      "name": "Moscow, Russia"
    },
    {
      "city": "Lyon",
      "county": "France",
      "iso": "FR",
      "flags": [
        "been"
      ],
      "lat": 45.755955,
      "lng": 4.832282,
      "name": "Lyon, France"
    },
    {
      "city": "Racine",
      "county": "WI",
      "iso": "",
      "flags": [
        "been"
      ],
      "lat": 42.725227,
      "lng": -87.784256,
      "name": "Racine, WI, USA"
    },
    {
      "city": "Chamonix",
      "county": "France",
      "iso": "FR",
      "flags": [
        "been"
      ],
      "lat": 45.925,
      "lng": 6.869077,
      "name": "Chamonix, France"
    },
    {
      "city": "Bay Harbor Islands",
      "county": "FL",
      "iso": "",
      "flags": [
        "been"
      ],
      "lat": 26.15092,
      "lng": -80.11782,
      "name": "Bay Harbor Islands, FL, USA"
    },
    {
      "city": "Stone Mountain",
      "county": "GA",
      "iso": "",
      "flags": [
        "been"
      ],
      "lat": 33.822445,
      "lng": -84.11728,
      "name": "Stone Mountain, GA, USA"
    },
    {
      "city": "Dodge City",
      "county": "KS",
      "iso": "",
      "flags": [
        "been"
      ],
      "lat": 37.753323,
      "lng": -100.01923,
      "name": "Dodge City, KS, USA"
    },
    {
      "city": "Jasper",
      "county": "IN",
      "iso": "",
      "flags": [
        "been"
      ],
      "lat": 38.392853,
      "lng": -86.94241,
      "name": "Jasper, IN, USA"
    },
    {
      "city": "Roanoke",
      "county": "VA",
      "iso": "",
      "flags": [
        "been"
      ],
      "lat": 37.2726,
      "lng": -79.94387,
      "name": "Roanoke, VA, USA"
    },
    {
      "city": "Jeffersonville",
      "county": "IN",
      "iso": "",
      "flags": [
        "been"
      ],
      "lat": 38.275673,
      "lng": -85.74083,
      "name": "Jeffersonville, IN, USA"
    },
    {
      "city": "Dunnellon",
      "county": "FL",
      "iso": "",
      "flags": [
        "been"
      ],
      "lat": 29.026043,
      "lng": -82.56325,
      "name": "Dunnellon, FL, USA"
    },
    {
      "city": "Statesboro",
      "county": "GA",
      "iso": "",
      "flags": [
        "been"
      ],
      "lat": 32.410248,
      "lng": -81.77322,
      "name": "Statesboro, GA, USA"
    },
    {
      "city": "Jekyll Island",
      "county": "GA",
      "iso": "",
      "flags": [
        "been"
      ],
      "lat": 31.070616,
      "lng": -81.42017,
      "name": "Jekyll Island, GA, USA"
    },
    {
      "city": "Terre Haute",
      "county": "IN",
      "iso": "",
      "flags": [
        "been"
      ],
      "lat": 39.465267,
      "lng": -87.40792,
      "name": "Terre Haute, IN, USA"
    },
    {
      "city": "Versailles",
      "county": "France",
      "iso": "FR",
      "flags": [
        "want"
      ],
      "lat": 48.802074,
      "lng": 2.128208,
      "name": "Versailles, France"
    },
    {
      "city": "Paris",
      "county": "France",
      "iso": "FR",
      "flags": [
        "been",
        "fave"
      ],
      "lat": 48.857037,
      "lng": 2.349401,
      "name": "Paris, France"
    },
    {
      "city": "Taipei",
      "county": "Taiwan",
      "iso": "TW",
      "flags": [
        "been"
      ],
      "lat": 25.040995,
      "lng": 121.51789,
      "name": "Taipei, Taiwan"
    },
    {
      "city": "Zurich",
      "county": "Switzerland",
      "iso": "CH",
      "flags": [
        "been"
      ],
      "lat": 47.374664,
      "lng": 8.539639,
      "name": "Zurich, Switzerland"
    },
    {
      "city": "Wilmington",
      "county": "NC",
      "iso": "",
      "flags": [
        "been"
      ],
      "lat": 34.237713,
      "lng": -77.942604,
      "name": "Wilmington, NC, USA"
    },
    {
      "city": "Maysville",
      "county": "KY",
      "iso": "",
      "flags": [
        "been"
      ],
      "lat": 38.64498,
      "lng": -83.7599,
      "name": "Maysville, KY, USA"
    },
    {
      "city": "Providenciales",
      "county": "Turks and Caicos",
      "iso": "",
      "flags": [
        "been"
      ],
      "lat": 21.78378,
      "lng": -72.28098,
      "name": "Providenciales, Turks and Caicos"
    },
    {
      "city": "Buenos Aires",
      "county": "Argentina",
      "iso": "AR",
      "flags": [
        "been"
      ],
      "lat": -34.58881,
      "lng": -58.39562,
      "name": "Buenos Aires, Argentina"
    },
    {
      "city": "Curacao",
      "county": "Caribbean",
      "iso": "",
      "flags": [
        "been"
      ],
      "lat": 12.153502,
      "lng": -68.93002,
      "name": "Curacao, Caribbean"
    },
    {
      "city": "Ocean City",
      "county": "MD",
      "iso": "",
      "flags": [
        "been"
      ],
      "lat": 38.388416,
      "lng": -75.063675,
      "name": "Ocean City, MD, USA"
    },
    {
      "city": "Havana",
      "county": "Cuba",
      "iso": "CU",
      "flags": [
        "want"
      ],
      "lat": 23.140123,
      "lng": -82.36885,
      "name": "Havana, Cuba"
    },
    {
      "city": "Salt Lake City",
      "county": "UT",
      "iso": "",
      "flags": [
        "been"
      ],
      "lat": 40.76258,
      "lng": -111.90102,
      "name": "Salt Lake City, UT, USA"
    },
    {
      "city": "Cape Girardeau",
      "county": "MO",
      "iso": "",
      "flags": [
        "been"
      ],
      "lat": 37.306633,
      "lng": -89.51719,
      "name": "Cape Girardeau, MO, USA"
    },
    {
      "city": "Walterboro",
      "county": "SC",
      "iso": "",
      "flags": [
        "been"
      ],
      "lat": 32.90411,
      "lng": -80.6675,
      "name": "Walterboro, SC, USA"
    },
    {
      "city": "Toulouse",
      "county": "France",
      "iso": "FR",
      "flags": [
        "been"
      ],
      "lat": 43.603947,
      "lng": 1.44303,
      "name": "Toulouse, France"
    },
    {
      "city": "Lake Ozark",
      "county": "MO",
      "iso": "",
      "flags": [
        "been"
      ],
      "lat": 38.19405,
      "lng": -92.64289,
      "name": "Lake Ozark, MO, USA"
    },
    {
      "city": "Corpus Christi",
      "county": "TX",
      "iso": "",
      "flags": [
        "been"
      ],
      "lat": 27.796726,
      "lng": -97.39798,
      "name": "Corpus Christi, TX, USA"
    },
    {
      "city": "Jacksonville",
      "county": "FL",
      "iso": "",
      "flags": [
        "been"
      ],
      "lat": 30.327557,
      "lng": -81.6628,
      "name": "Jacksonville, FL, USA"
    },
    {
      "city": "Lourdes",
      "county": "France",
      "iso": "FR",
      "flags": [
        "been"
      ],
      "lat": 43.097115,
      "lng": -0.046901,
      "name": "Lourdes, France"
    },
    {
      "city": "Stuttgart",
      "county": "Germany",
      "iso": "DE",
      "flags": [
        "been"
      ],
      "lat": 48.781322,
      "lng": 9.183353,
      "name": "Stuttgart, Germany"
    },
    {
      "city": "Arcadia",
      "county": "FL",
      "iso": "",
      "flags": [
        "been"
      ],
      "lat": 27.21462,
      "lng": -81.8621,
      "name": "Arcadia, FL, USA"
    },
    {
      "city": "North Charleston",
      "county": "SC",
      "iso": "",
      "flags": [
        "been"
      ],
      "lat": 32.87668,
      "lng": -80.014244,
      "name": "North Charleston, SC, USA"
    },
    {
      "city": "San Pedro",
      "county": "Belize",
      "iso": "BZ",
      "flags": [
        "been"
      ],
      "lat": 17.916956,
      "lng": -87.96367,
      "name": "San Pedro, Belize"
    },
    {
      "city": "Macon",
      "county": "GA",
      "iso": "",
      "flags": [
        "been"
      ],
      "lat": 32.8405,
      "lng": -83.6325,
      "name": "Macon, GA, USA"
    },
    {
      "city": "Fort Collins",
      "county": "CO",
      "iso": "",
      "flags": [
        "been"
      ],
      "lat": 40.582123,
      "lng": -105.07729,
      "name": "Fort Collins, CO, USA"
    },
    {
      "city": "Siesta Key",
      "county": "FL",
      "iso": "",
      "flags": [
        "been"
      ],
      "lat": 27.268272,
      "lng": -82.55118,
      "name": "Siesta Key, FL, USA"
    },
    {
      "city": "Zephyrhills",
      "county": "FL",
      "iso": "",
      "flags": [
        "been"
      ],
      "lat": 28.237268,
      "lng": -82.17998,
      "name": "Zephyrhills, FL, USA"
    },
    {
      "city": "Orlando",
      "county": "FL",
      "iso": "",
      "flags": [
        "been"
      ],
      "lat": 28.532557,
      "lng": -81.38888,
      "name": "Orlando, FL, USA"
    },
    {
      "city": "Atlantic Beach",
      "county": "FL",
      "iso": "",
      "flags": [
        "been"
      ],
      "lat": 30.32484,
      "lng": -81.39772,
      "name": "Atlantic Beach, FL, USA"
    },
    {
      "city": "La Jolla",
      "county": "CA",
      "iso": "",
      "flags": [
        "been"
      ],
      "lat": 32.867237,
      "lng": -117.24732,
      "name": "La Jolla, CA, USA"
    },
    {
      "city": "Telluride",
      "county": "CO",
      "iso": "",
      "flags": [
        "been"
      ],
      "lat": 37.938046,
      "lng": -107.81161,
      "name": "Telluride, CO, USA"
    },
    {
      "city": "Cumberland Island",
      "county": "GA",
      "iso": "",
      "flags": [
        "been"
      ],
      "lat": 30.8637,
      "lng": -81.45066,
      "name": "Cumberland Island, GA, USA"
    },
    {
      "city": "Ormond Beach",
      "county": "FL",
      "iso": "",
      "flags": [
        "been"
      ],
      "lat": 29.2853,
      "lng": -81.0568,
      "name": "Ormond Beach, FL, USA"
    },
    {
      "city": "Guadalajara",
      "county": "Mexico",
      "iso": "MX",
      "flags": [
        "been"
      ],
      "lat": 20.671846,
      "lng": -103.34615,
      "name": "Guadalajara, Mexico"
    },
    {
      "city": "Sevierville",
      "county": "TN",
      "iso": "",
      "flags": [
        "been"
      ],
      "lat": 35.8684,
      "lng": -83.56548,
      "name": "Sevierville, TN, USA"
    },
    {
      "city": "Calgary",
      "county": "Alberta",
      "iso": "",
      "flags": [
        "been"
      ],
      "lat": 51.05011,
      "lng": -114.07173,
      "name": "Calgary, Alberta, Canada"
    },
    {
      "city": "Myrtle Beach",
      "county": "SC",
      "iso": "",
      "flags": [
        "been"
      ],
      "lat": 33.694344,
      "lng": -78.88463,
      "name": "Myrtle Beach, SC, USA"
    },
    {
      "city": "Edmonton",
      "county": "Alberta",
      "iso": "",
      "flags": [
        "been"
      ],
      "lat": 53.54132,
      "lng": -113.5006,
      "name": "Edmonton, Alberta, Canada"
    },
    {
      "city": "Bridgetown",
      "county": "Barbados",
      "iso": "BB",
      "flags": [
        "been"
      ],
      "lat": 13.101382,
      "lng": -59.612534,
      "name": "Bridgetown, Barbados"
    },
    {
      "city": "Mazatlan",
      "county": "Mexico",
      "iso": "MX",
      "flags": [
        "been"
      ],
      "lat": 23.21667,
      "lng": -106.4166,
      "name": "Mazatlan, Mexico"
    },
    {
      "city": "Puerto Vallarta",
      "county": "Mexico",
      "iso": "MX",
      "flags": [
        "been"
      ],
      "lat": 20.614948,
      "lng": -105.22963,
      "name": "Puerto Vallarta, Mexico"
    },
    {
      "city": "Heidelberg",
      "county": "Germany",
      "iso": "DE",
      "flags": [
        "been"
      ],
      "lat": 49.40902,
      "lng": 8.697485,
      "name": "Heidelberg, Germany"
    },
    {
      "city": "Mount Pleasant",
      "county": "SC",
      "iso": "",
      "flags": [
        "been"
      ],
      "lat": 32.801216,
      "lng": -79.88991,
      "name": "Mount Pleasant, SC, USA"
    },
    {
      "city": "Banff",
      "county": "Alberta",
      "iso": "",
      "flags": [
        "been"
      ],
      "lat": 51.176468,
      "lng": -115.571,
      "name": "Banff, Alberta, Canada"
    },
    {
      "city": "Natchez",
      "county": "MS",
      "iso": "",
      "flags": [
        "been"
      ],
      "lat": 31.541527,
      "lng": -91.40425,
      "name": "Natchez, MS, USA"
    },
    {
      "city": "Detroit",
      "county": "MI",
      "iso": "",
      "flags": [
        "been"
      ],
      "lat": 42.337585,
      "lng": -83.06409,
      "name": "Detroit, MI, USA"
    },
    {
      "city": "Vienna",
      "county": "Austria",
      "iso": "AT",
      "flags": [
        "been"
      ],
      "lat": 48.208862,
      "lng": 16.372383,
      "name": "Vienna, Austria"
    },
    {
      "city": "Bloomington",
      "county": "IN",
      "iso": "",
      "flags": [
        "been"
      ],
      "lat": 39.167133,
      "lng": -86.53536,
      "name": "Bloomington, IN, USA"
    },
    {
      "city": "Amarillo",
      "county": "TX",
      "iso": "",
      "flags": [
        "been"
      ],
      "lat": 35.22158,
      "lng": -101.82993,
      "name": "Amarillo, TX, USA"
    },
    {
      "city": "Vail",
      "county": "CO",
      "iso": "",
      "flags": [
        "been"
      ],
      "lat": 39.642307,
      "lng": -106.38403,
      "name": "Vail, CO, USA"
    },
    {
      "city": "Karlsruhe",
      "county": "Germany",
      "iso": "DE",
      "flags": [
        "been"
      ],
      "lat": 49.00574,
      "lng": 8.386042,
      "name": "Karlsruhe, Germany"
    },
    {
      "city": "Darien",
      "county": "GA",
      "iso": "",
      "flags": [
        "been"
      ],
      "lat": 31.3745,
      "lng": -81.43287,
      "name": "Darien, GA, USA"
    },
    {
      "city": "Laguna Beach",
      "county": "CA",
      "iso": "",
      "flags": [
        "been"
      ],
      "lat": 33.54247,
      "lng": -117.78387,
      "name": "Laguna Beach, CA, USA"
    },
    {
      "city": "Green Bay",
      "county": "WI",
      "iso": "",
      "flags": [
        "been"
      ],
      "lat": 44.525734,
      "lng": -88.06747,
      "name": "Green Bay, WI, USA"
    },
    {
      "city": "Cayo Largo",
      "county": "Cuba",
      "iso": "CU",
      "flags": [
        "want"
      ],
      "lat": 21.608746,
      "lng": -81.525635,
      "name": "Cayo Largo, Cuba"
    },
    {
      "city": "Nagoya",
      "county": "Japan",
      "iso": "JP",
      "flags": [
        "been"
      ],
      "lat": 35.184067,
      "lng": 136.8993,
      "name": "Nagoya, Japan"
    },
    {
      "city": "Kuala Lumpur",
      "county": "Malaysia",
      "iso": "MY",
      "flags": [
        "want"
      ],
      "lat": 3.156802,
      "lng": 101.69717,
      "name": "Kuala Lumpur, Malaysia"
    },
    {
      "city": "Saint Cloud",
      "county": "MN",
      "iso": "",
      "flags": [
        "been"
      ],
      "lat": 45.55954,
      "lng": -94.16132,
      "name": "Saint Cloud, MN, USA"
    },
    {
      "city": "Acapulco",
      "county": "Mexico",
      "iso": "MX",
      "flags": [
        "want"
      ],
      "lat": 16.86361,
      "lng": -99.8825,
      "name": "Acapulco, Mexico"
    },
    {
      "city": "Bar Harbor",
      "county": "ME",
      "iso": "",
      "flags": [
        "want"
      ],
      "lat": 44.391544,
      "lng": -68.206375,
      "name": "Bar Harbor, ME, USA"
    },
    {
      "city": "Santa Marta",
      "county": "Colombia",
      "iso": "CO",
      "flags": [
        "been"
      ],
      "lat": 11.227404,
      "lng": -74.20715,
      "name": "Santa Marta, Colombia"
    },
    {
      "city": "Manila",
      "county": "Philippines",
      "iso": "PH",
      "flags": [
        "been"
      ],
      "lat": 14.596564,
      "lng": 120.98082,
      "name": "Manila, Philippines"
    },
    {
      "city": "Providence",
      "county": "RI",
      "iso": "",
      "flags": [
        "been"
      ],
      "lat": 41.8228,
      "lng": -71.41235,
      "name": "Providence, RI, USA"
    },
    {
      "city": "Estes Park",
      "county": "CO",
      "iso": "",
      "flags": [
        "been"
      ],
      "lat": 40.37684,
      "lng": -105.51933,
      "name": "Estes Park, CO, USA"
    },
    {
      "city": "Duluth",
      "county": "MN",
      "iso": "",
      "flags": [
        "been"
      ],
      "lat": 46.78355,
      "lng": -92.10457,
      "name": "Duluth, MN, USA"
    },
    {
      "city": "Hardeeville",
      "county": "SC",
      "iso": "",
      "flags": [
        "been"
      ],
      "lat": 32.28778,
      "lng": -81.08182,
      "name": "Hardeeville, SC, USA"
    },
    {
      "city": "Strasbourg",
      "county": "France",
      "iso": "FR",
      "flags": [
        "been"
      ],
      "lat": 48.583153,
      "lng": 7.7636,
      "name": "Strasbourg, France"
    },
    {
      "city": "Vincennes",
      "county": "IN",
      "iso": "",
      "flags": [
        "been"
      ],
      "lat": 38.672955,
      "lng": -87.53613,
      "name": "Vincennes, IN, USA"
    },
    {
      "city": "Brooklyn",
      "county": "NY",
      "iso": "",
      "flags": [
        "been"
      ],
      "lat": 40.67556,
      "lng": -73.97103,
      "name": "Brooklyn, NY, USA"
    },
    {
      "city": "Fairbanks",
      "county": "AK",
      "iso": "",
      "flags": [
        "been"
      ],
      "lat": 64.85599,
      "lng": -147.84789,
      "name": "Fairbanks, AK, USA"
    },
    {
      "city": "Palm Beach",
      "county": "FL",
      "iso": "",
      "flags": [
        "been"
      ],
      "lat": 26.700981,
      "lng": -80.037704,
      "name": "Palm Beach, FL, USA"
    },
    {
      "city": "Palm Coast",
      "county": "FL",
      "iso": "",
      "flags": [
        "been"
      ],
      "lat": 29.57446,
      "lng": -81.212265,
      "name": "Palm Coast, FL, USA"
    },
    {
      "city": "Boulder",
      "county": "CO",
      "iso": "",
      "flags": [
        "been"
      ],
      "lat": 40.01643,
      "lng": -105.26979,
      "name": "Boulder, CO, USA"
    },
    {
      "city": "Tok",
      "county": "AK",
      "iso": "",
      "flags": [
        "been"
      ],
      "lat": 63.33534,
      "lng": -142.98528,
      "name": "Tok, AK, USA"
    },
    {
      "city": "Spring Hill",
      "county": "FL",
      "iso": "",
      "flags": [
        "been"
      ],
      "lat": 28.47182,
      "lng": -82.5387,
      "name": "Spring Hill, FL, USA"
    },
    {
      "city": "Palm Beach Gardens",
      "county": "FL",
      "iso": "",
      "flags": [
        "been"
      ],
      "lat": 26.829124,
      "lng": -80.140884,
      "name": "Palm Beach Gardens, FL, USA"
    },
    {
      "city": "Bordeaux",
      "county": "France",
      "iso": "FR",
      "flags": [
        "been"
      ],
      "lat": 44.838123,
      "lng": -0.577102,
      "name": "Bordeaux, France"
    },
    {
      "city": "Breckenridge",
      "county": "CO",
      "iso": "",
      "flags": [
        "been"
      ],
      "lat": 39.47644,
      "lng": -106.04499,
      "name": "Breckenridge, CO, USA"
    },
    {
      "city": "Glenwood Springs",
      "county": "CO",
      "iso": "",
      "flags": [
        "been"
      ],
      "lat": 39.54391,
      "lng": -107.32404,
      "name": "Glenwood Springs, CO, USA"
    },
    {
      "city": "Stuart",
      "county": "FL",
      "iso": "",
      "flags": [
        "been"
      ],
      "lat": 27.197514,
      "lng": -80.254974,
      "name": "Stuart, FL, USA"
    },
    {
      "city": "Basel",
      "county": "Switzerland",
      "iso": "CH",
      "flags": [
        "been"
      ],
      "lat": 47.56868,
      "lng": 7.587512,
      "name": "Basel, Switzerland"
    },
    {
      "city": "Golden",
      "county": "CO",
      "iso": "",
      "flags": [
        "been"
      ],
      "lat": 39.718906,
      "lng": -105.19091,
      "name": "Golden, CO, USA"
    },
    {
      "city": "Aruba",
      "county": "Caribbean",
      "iso": "",
      "flags": [
        "been"
      ],
      "lat": 12.506973,
      "lng": -69.97261,
      "name": "Aruba, Caribbean"
    },
    {
      "city": "Seven Mile Beach",
      "county": "Cayman Islands",
      "iso": "KY",
      "flags": [
        "want"
      ],
      "lat": 19.320862,
      "lng": -81.379166,
      "name": "Seven Mile Beach, Cayman Islands"
    },
    {
      "city": "Fajardo",
      "county": "Puerto Rico",
      "iso": "PR",
      "flags": [
        "been"
      ],
      "lat": 18.326706,
      "lng": -65.65765,
      "name": "Fajardo, Puerto Rico"
    },
    {
      "city": "Nashville",
      "county": "TN",
      "iso": "",
      "flags": [
        "been"
      ],
      "lat": 36.163338,
      "lng": -86.77698,
      "name": "Nashville, TN, USA"
    },
    {
      "city": "Barranquilla",
      "county": "Colombia",
      "iso": "CO",
      "flags": [
        "been"
      ],
      "lat": 10.96393,
      "lng": -74.79638,
      "name": "Barranquilla, Colombia"
    },
    {
      "city": "St. John's",
      "county": "Antigua and Barbuda",
      "iso": "",
      "flags": [
        "been"
      ],
      "lat": 17.122229,
      "lng": -61.844303,
      "name": "St. John's, Antigua and Barbuda"
    },
    {
      "city": "South Pittsburg",
      "county": "TN",
      "iso": "",
      "flags": [
        "been"
      ],
      "lat": 35.012,
      "lng": -85.70505,
      "name": "South Pittsburg, TN, USA"
    },
    {
      "city": "Kobe",
      "county": "Japan",
      "iso": "JP",
      "flags": [
        "want"
      ],
      "lat": 34.690083,
      "lng": 135.19551,
      "name": "Kobe, Japan"
    },
    {
      "city": "Greenville",
      "county": "SC",
      "iso": "",
      "flags": [
        "been"
      ],
      "lat": 34.84898,
      "lng": -82.38927,
      "name": "Greenville, SC, USA"
    },
    {
      "city": "Savannah",
      "county": "GA",
      "iso": "",
      "flags": [
        "been"
      ],
      "lat": 32.080093,
      "lng": -81.09139,
      "name": "Savannah, GA, USA"
    },
    {
      "city": "Luxembourg City",
      "county": "Luxembourg",
      "iso": "LU",
      "flags": [
        "been"
      ],
      "lat": 49.6112,
      "lng": 6.129381,
      "name": "Luxembourg City, Luxembourg"
    },
    {
      "city": "Lincoln",
      "county": "NE",
      "iso": "",
      "flags": [
        "been"
      ],
      "lat": 40.807537,
      "lng": -96.714096,
      "name": "Lincoln, NE, USA"
    },
    {
      "city": "East Lansing",
      "county": "MI",
      "iso": "",
      "flags": [
        "been"
      ],
      "lat": 42.739197,
      "lng": -84.48318,
      "name": "East Lansing, MI, USA"
    },
    {
      "city": "Beaufort",
      "county": "SC",
      "iso": "",
      "flags": [
        "been"
      ],
      "lat": 32.43066,
      "lng": -80.6701,
      "name": "Beaufort, SC, USA"
    },
    {
      "city": "Albuquerque",
      "county": "NM",
      "iso": "",
      "flags": [
        "been"
      ],
      "lat": 35.088856,
      "lng": -106.6491,
      "name": "Albuquerque, NM, USA"
    },
    {
      "city": "Sunny Isles Beach",
      "county": "FL",
      "iso": "",
      "flags": [
        "been"
      ],
      "lat": 25.94768,
      "lng": -80.11985,
      "name": "Sunny Isles Beach, FL, USA"
    },
    {
      "city": "Orangeburg",
      "county": "SC",
      "iso": "",
      "flags": [
        "been"
      ],
      "lat": 33.492203,
      "lng": -80.86624,
      "name": "Orangeburg, SC, USA"
    },
    {
      "city": "Baltimore",
      "county": "MD",
      "iso": "",
      "flags": [
        "been"
      ],
      "lat": 39.286587,
      "lng": -76.611465,
      "name": "Baltimore, MD, USA"
    },
    {
      "city": "West Columbia",
      "county": "SC",
      "iso": "",
      "flags": [
        "been"
      ],
      "lat": 33.98607,
      "lng": -81.07241,
      "name": "West Columbia, SC, USA"
    },
    {
      "city": "Fort Smith",
      "county": "AR",
      "iso": "",
      "flags": [
        "been"
      ],
      "lat": 35.385372,
      "lng": -94.42057,
      "name": "Fort Smith, AR, USA"
    },
    {
      "city": "Porto Nao",
      "county": "Colombia",
      "iso": "CO",
      "flags": [
        "been"
      ],
      "lat": 10.251806,
      "lng": -75.60446,
      "name": "Porto Nao, Colombia"
    },
    {
      "city": "Oslo",
      "county": "Norway",
      "iso": "NO",
      "flags": [
        "want"
      ],
      "lat": 59.91173,
      "lng": 10.750844,
      "name": "Oslo, Norway"
    },
    {
      "city": "North Myrtle Beach",
      "county": "SC",
      "iso": "",
      "flags": [
        "been"
      ],
      "lat": 33.82397,
      "lng": -78.678276,
      "name": "North Myrtle Beach, SC, USA"
    },
    {
      "city": "Bayeux",
      "county": "France",
      "iso": "FR",
      "flags": [
        "been"
      ],
      "lat": 49.2773,
      "lng": -0.7039,
      "name": "Bayeux, France"
    },
    {
      "city": "Ketchikan",
      "county": "AK",
      "iso": "",
      "flags": [
        "been"
      ],
      "lat": 55.342678,
      "lng": -131.64627,
      "name": "Ketchikan, AK, USA"
    },
    {
      "city": "Arlington",
      "county": "TX",
      "iso": "",
      "flags": [
        "been"
      ],
      "lat": 32.735504,
      "lng": -97.102104,
      "name": "Arlington, TX, USA"
    },
    {
      "city": "Parris Island",
      "county": "SC",
      "iso": "",
      "flags": [
        "been"
      ],
      "lat": 32.349525,
      "lng": -80.69011,
      "name": "Parris Island, SC, USA"
    },
    {
      "city": "Grand Junction",
      "county": "CO",
      "iso": "",
      "flags": [
        "been"
      ],
      "lat": 39.065235,
      "lng": -108.56436,
      "name": "Grand Junction, CO, USA"
    },
    {
      "city": "Tyler",
      "county": "TX",
      "iso": "",
      "flags": [
        "been"
      ],
      "lat": 32.35932,
      "lng": -95.29853,
      "name": "Tyler, TX, USA"
    },
    {
      "city": "Panama City Beach",
      "county": "FL",
      "iso": "",
      "flags": [
        "been"
      ],
      "lat": 30.19337,
      "lng": -85.830505,
      "name": "Panama City Beach, FL, USA"
    },
    {
      "city": "Manchester",
      "county": "UK",
      "iso": "GB",
      "flags": [
        "been"
      ],
      "lat": 53.476948,
      "lng": -2.247661,
      "name": "Manchester, UK"
    },
    {
      "city": "Panama City",
      "county": "FL",
      "iso": "",
      "flags": [
        "been"
      ],
      "lat": 30.160019,
      "lng": -85.65999,
      "name": "Panama City, FL, USA"
    },
    {
      "city": "Medellin",
      "county": "Colombia",
      "iso": "CO",
      "flags": [
        "been"
      ],
      "lat": 6.251038,
      "lng": -75.56297,
      "name": "Medellin, Colombia"
    },
    {
      "city": "Osaka",
      "county": "Japan",
      "iso": "JP",
      "flags": [
        "been"
      ],
      "lat": 34.67582,
      "lng": 135.50941,
      "name": "Osaka, Japan"
    },
    {
      "city": "Sunrise",
      "county": "FL",
      "iso": "",
      "flags": [
        "been"
      ],
      "lat": 26.166971,
      "lng": -80.25659,
      "name": "Sunrise, FL, USA"
    },
    {
      "city": "Cartagena",
      "county": "Colombia",
      "iso": "CO",
      "flags": [
        "been"
      ],
      "lat": 10.415437,
      "lng": -75.53431,
      "name": "Cartagena, Colombia"
    },
    {
      "city": "Kyoto",
      "county": "Japan",
      "iso": "JP",
      "flags": [
        "been"
      ],
      "lat": 35.007393,
      "lng": 135.76434,
      "name": "Kyoto, Japan"
    },
    {
      "city": "Auckland Region",
      "county": "New Zealand",
      "iso": "NZ",
      "flags": [
        "been"
      ],
      "lat": -36.87216,
      "lng": 174.76529,
      "name": "Auckland Region, New Zealand"
    },
    {
      "city": "Brownsburg",
      "county": "IN",
      "iso": "",
      "flags": [
        "been"
      ],
      "lat": 39.84402,
      "lng": -86.39761,
      "name": "Brownsburg, IN, USA"
    },
    {
      "city": "Palm - Eagle Beach",
      "county": "Aruba",
      "iso": "AW",
      "flags": [
        "been"
      ],
      "lat": 12.558613,
      "lng": -70.053856,
      "name": "Palm - Eagle Beach, Aruba"
    },
    {
      "city": "Davenport",
      "county": "IA",
      "iso": "",
      "flags": [
        "been"
      ],
      "lat": 41.560555,
      "lng": -90.57616,
      "name": "Davenport, IA, USA"
    },
    {
      "city": "Lucerne",
      "county": "Switzerland",
      "iso": "CH",
      "flags": [
        "been"
      ],
      "lat": 47.04861,
      "lng": 8.305017,
      "name": "Lucerne, Switzerland"
    },
    {
      "city": "Blowing Rock",
      "county": "NC",
      "iso": "",
      "flags": [
        "been"
      ],
      "lat": 36.13392,
      "lng": -81.67867,
      "name": "Blowing Rock, NC, USA"
    },
    {
      "city": "Bocachica",
      "county": "Colombia",
      "iso": "CO",
      "flags": [
        "been"
      ],
      "lat": 10.326316,
      "lng": -75.57905,
      "name": "Bocachica, Colombia"
    },
    {
      "city": "Knoxville",
      "county": "TN",
      "iso": "",
      "flags": [
        "been"
      ],
      "lat": 35.962086,
      "lng": -83.922,
      "name": "Knoxville, TN, USA"
    },
    {
      "city": "Bogota",
      "county": "Colombia",
      "iso": "CO",
      "flags": [
        "been",
        "want"
      ],
      "lat": 4.623524,
      "lng": -74.08038,
      "name": "Bogota, Colombia"
    },
    {
      "city": "Greensboro",
      "county": "NC",
      "iso": "",
      "flags": [
        "been"
      ],
      "lat": 36.087593,
      "lng": -79.75946,
      "name": "Greensboro, NC, USA"
    },
    {
      "city": "Cayce",
      "county": "SC",
      "iso": "",
      "flags": [
        "been"
      ],
      "lat": 33.9702,
      "lng": -81.06637,
      "name": "Cayce, SC, USA"
    },
    {
      "city": "Tarpon Springs",
      "county": "FL",
      "iso": "",
      "flags": [
        "been"
      ],
      "lat": 28.139746,
      "lng": -82.661736,
      "name": "Tarpon Springs, FL, USA"
    },
    {
      "city": "Independence",
      "county": "MO",
      "iso": "",
      "flags": [
        "been"
      ],
      "lat": 39.093006,
      "lng": -94.41632,
      "name": "Independence, MO, USA"
    },
    {
      "city": "Isle of Palms",
      "county": "SC",
      "iso": "",
      "flags": [
        "been"
      ],
      "lat": 32.78545,
      "lng": -79.79017,
      "name": "Isle of Palms, SC, USA"
    },
    {
      "city": "Wasilla",
      "county": "AK",
      "iso": "",
      "flags": [
        "been"
      ],
      "lat": 61.57847,
      "lng": -149.42896,
      "name": "Wasilla, AK, USA"
    },
    {
      "city": "Charleston",
      "county": "SC",
      "iso": "",
      "flags": [
        "been"
      ],
      "lat": 32.78019,
      "lng": -79.93252,
      "name": "Charleston, SC, USA"
    },
    {
      "city": "Austin",
      "county": "TX",
      "iso": "",
      "flags": [
        "been"
      ],
      "lat": 30.267223,
      "lng": -97.742546,
      "name": "Austin, TX, USA"
    },
    {
      "city": "Plano",
      "county": "TX",
      "iso": "",
      "flags": [
        "been"
      ],
      "lat": 33.015373,
      "lng": -96.68919,
      "name": "Plano, TX, USA"
    },
    {
      "city": "Pensacola",
      "county": "FL",
      "iso": "",
      "flags": [
        "been"
      ],
      "lat": 30.527498,
      "lng": -87.27258,
      "name": "Pensacola, FL, USA"
    },
    {
      "city": "Anaheim",
      "county": "CA",
      "iso": "",
      "flags": [
        "been"
      ],
      "lat": 33.833836,
      "lng": -117.91577,
      "name": "Anaheim, CA, USA"
    },
    {
      "city": "Gatlinburg",
      "county": "TN",
      "iso": "",
      "flags": [
        "been",
        "fave"
      ],
      "lat": 35.714596,
      "lng": -83.511215,
      "name": "Gatlinburg, TN, USA"
    },
    {
      "city": "Melbourne Beach",
      "county": "FL",
      "iso": "",
      "flags": [
        "been"
      ],
      "lat": 28.07458,
      "lng": -80.559555,
      "name": "Melbourne Beach, FL, USA"
    },
    {
      "city": "Tallahassee",
      "county": "FL",
      "iso": "",
      "flags": [
        "been"
      ],
      "lat": 30.438416,
      "lng": -84.283714,
      "name": "Tallahassee, FL, USA"
    },
    {
      "city": "Melbourne",
      "county": "FL",
      "iso": "",
      "flags": [
        "been"
      ],
      "lat": 28.079666,
      "lng": -80.60635,
      "name": "Melbourne, FL, USA"
    },
    {
      "city": "Sonoma",
      "county": "CA",
      "iso": "",
      "flags": [
        "been"
      ],
      "lat": 38.34966,
      "lng": -122.49707,
      "name": "Sonoma, CA, USA"
    },
    {
      "city": "Miami Beach",
      "county": "FL",
      "iso": "",
      "flags": [
        "been"
      ],
      "lat": 25.793701,
      "lng": -80.13456,
      "name": "Miami Beach, FL, USA"
    },
    {
      "city": "Lisbon",
      "county": "Portugal",
      "iso": "PT",
      "flags": [
        "want"
      ],
      "lat": 38.71211,
      "lng": -9.138085,
      "name": "Lisbon, Portugal"
    },
    {
      "city": "Rockford",
      "county": "IL",
      "iso": "",
      "flags": [
        "been"
      ],
      "lat": 42.26925,
      "lng": -89.09119,
      "name": "Rockford, IL, USA"
    },
    {
      "city": "Miami",
      "county": "FL",
      "iso": "",
      "flags": [
        "been"
      ],
      "lat": 25.781275,
      "lng": -80.190445,
      "name": "Miami, FL, USA"
    },
    {
      "city": "Guangzhou",
      "county": "China",
      "iso": "CN",
      "flags": [
        "been"
      ],
      "lat": 23.10682,
      "lng": 113.25049,
      "name": "Guangzhou, China"
    },
    {
      "city": "Seoul",
      "county": "South Korea",
      "iso": "KR",
      "flags": [
        "been"
      ],
      "lat": 37.477543,
      "lng": 127.00857,
      "name": "Seoul, South Korea"
    },
    {
      "city": "Mexico Beach",
      "county": "FL",
      "iso": "",
      "flags": [
        "been"
      ],
      "lat": 29.953588,
      "lng": -85.42806,
      "name": "Mexico Beach, FL, USA"
    },
    {
      "city": "Tampa",
      "county": "FL",
      "iso": "",
      "flags": [
        "been"
      ],
      "lat": 27.943573,
      "lng": -82.462524,
      "name": "Tampa, FL, USA"
    },
    {
      "city": "St. Maarten-St. Martin",
      "county": "Caribbean",
      "iso": "",
      "flags": [
        "been"
      ],
      "lat": 18.055458,
      "lng": -63.05746,
      "name": "St. Maarten-St. Martin, Caribbean"
    },
    {
      "city": "Biarritz",
      "county": "France",
      "iso": "FR",
      "flags": [
        "been"
      ],
      "lat": 43.48213,
      "lng": -1.565064,
      "name": "Biarritz, France"
    },
    {
      "city": "Shanghai",
      "county": "China",
      "iso": "CN",
      "flags": [
        "been"
      ],
      "lat": 31.234953,
      "lng": 121.48737,
      "name": "Shanghai, China"
    },
    {
      "city": "San Antonio",
      "county": "TX",
      "iso": "",
      "flags": [
        "been"
      ],
      "lat": 29.425142,
      "lng": -98.49308,
      "name": "San Antonio, TX, USA"
    },
    {
      "city": "San Francisco",
      "county": "CA",
      "iso": "",
      "flags": [
        "been"
      ],
      "lat": 37.778934,
      "lng": -122.41579,
      "name": "San Francisco, CA, USA"
    },
    {
      "city": "Jackson",
      "county": "TN",
      "iso": "",
      "flags": [
        "been"
      ],
      "lat": 35.616104,
      "lng": -88.816826,
      "name": "Jackson, TN, USA"
    },
    {
      "city": "Carmel",
      "county": "IN",
      "iso": "",
      "flags": [
        "been"
      ],
      "lat": 39.978386,
      "lng": -86.12707,
      "name": "Carmel, IN, USA"
    },
    {
      "city": "Salem",
      "county": "MA",
      "iso": "",
      "flags": [
        "been"
      ],
      "lat": 42.48181,
      "lng": -70.90379,
      "name": "Salem, MA, USA"
    },
    {
      "city": "Hilton Head",
      "county": "SC",
      "iso": "",
      "flags": [
        "been"
      ],
      "lat": 32.25998,
      "lng": -80.71417,
      "name": "Hilton Head, SC, USA"
    },
    {
      "city": "Santa Fe",
      "county": "NM",
      "iso": "",
      "flags": [
        "been"
      ],
      "lat": 35.687416,
      "lng": -105.93867,
      "name": "Santa Fe, NM, USA"
    },
    {
      "city": "Irmo",
      "county": "SC",
      "iso": "",
      "flags": [
        "been"
      ],
      "lat": 34.090073,
      "lng": -81.186966,
      "name": "Irmo, SC, USA"
    },
    {
      "city": "Miami Lakes",
      "county": "FL",
      "iso": "",
      "flags": [
        "been"
      ],
      "lat": 25.9122,
      "lng": -80.30942,
      "name": "Miami Lakes, FL, USA"
    },
    {
      "city": "Eau Claire",
      "county": "WI",
      "iso": "",
      "flags": [
        "been"
      ],
      "lat": 44.811592,
      "lng": -91.50041,
      "name": "Eau Claire, WI, USA"
    },
    {
      "city": "Aiken",
      "county": "SC",
      "iso": "",
      "flags": [
        "been"
      ],
      "lat": 33.560345,
      "lng": -81.72274,
      "name": "Aiken, SC, USA"
    },
    {
      "city": "Inverness",
      "county": "FL",
      "iso": "",
      "flags": [
        "been"
      ],
      "lat": 28.83135,
      "lng": -82.326706,
      "name": "Inverness, FL, USA"
    },
    {
      "city": "Tucson",
      "county": "AZ",
      "iso": "",
      "flags": [
        "been"
      ],
      "lat": 32.217606,
      "lng": -110.96425,
      "name": "Tucson, AZ, USA"
    },
    {
      "city": "Jacksonville Beach",
      "county": "FL",
      "iso": "",
      "flags": [
        "been"
      ],
      "lat": 30.293098,
      "lng": -81.39299,
      "name": "Jacksonville Beach, FL, USA"
    },
    {
      "city": "Big Sur",
      "county": "CA",
      "iso": "",
      "flags": [
        "been"
      ],
      "lat": 36.233295,
      "lng": -121.69384,
      "name": "Big Sur, CA, USA"
    },
    {
      "city": "Des Moines",
      "county": "IA",
      "iso": "",
      "flags": [
        "been"
      ],
      "lat": 41.601276,
      "lng": -93.60757,
      "name": "Des Moines, IA, USA"
    },
    {
      "city": "Sandusky",
      "county": "OH",
      "iso": "",
      "flags": [
        "been"
      ],
      "lat": 41.466705,
      "lng": -82.81974,
      "name": "Sandusky, OH, USA"
    },
    {
      "city": "Rochester",
      "county": "NY",
      "iso": "",
      "flags": [
        "been"
      ],
      "lat": 43.16486,
      "lng": -77.6809,
      "name": "Rochester, NY, USA"
    },
    {
      "city": "Topeka",
      "county": "KS",
      "iso": "",
      "flags": [
        "been"
      ],
      "lat": 39.0765,
      "lng": -95.66186,
      "name": "Topeka, KS, USA"
    },
    {
      "city": "Tupelo",
      "county": "MS",
      "iso": "",
      "flags": [
        "been"
      ],
      "lat": 34.25741,
      "lng": -88.70886,
      "name": "Tupelo, MS, USA"
    },
    {
      "city": "Laramie",
      "county": "WY",
      "iso": "",
      "flags": [
        "been"
      ],
      "lat": 41.310867,
      "lng": -105.59327,
      "name": "Laramie, WY, USA"
    },
    {
      "city": "Boston",
      "county": "MA",
      "iso": "",
      "flags": [
        "been"
      ],
      "lat": 42.357277,
      "lng": -71.05834,
      "name": "Boston, MA, USA"
    },
    {
      "city": "Champaign",
      "county": "IL",
      "iso": "",
      "flags": [
        "been"
      ],
      "lat": 40.11834,
      "lng": -88.243515,
      "name": "Champaign, IL, USA"
    },
    {
      "city": "Columbia",
      "county": "SC",
      "iso": "",
      "flags": [
        "been"
      ],
      "lat": 33.997723,
      "lng": -81.03568,
      "name": "Columbia, SC, USA"
    },
    {
      "city": "Honolulu",
      "county": "HI",
      "iso": "",
      "flags": [
        "been"
      ],
      "lat": 21.308142,
      "lng": -157.86186,
      "name": "Honolulu, HI, USA"
    },
    {
      "city": "Colorado Springs",
      "county": "CO",
      "iso": "",
      "flags": [
        "been"
      ],
      "lat": 38.832836,
      "lng": -104.82623,
      "name": "Colorado Springs, CO, USA"
    },
    {
      "city": "Everglades City",
      "county": "FL",
      "iso": "",
      "flags": [
        "been"
      ],
      "lat": 25.861332,
      "lng": -81.38313,
      "name": "Everglades City, FL, USA"
    },
    {
      "city": "Ponte Vedra Beach",
      "county": "FL",
      "iso": "",
      "flags": [
        "been"
      ],
      "lat": 30.240675,
      "lng": -81.3781,
      "name": "Ponte Vedra Beach, FL, USA"
    },
    {
      "city": "Treasure Island",
      "county": "FL",
      "iso": "",
      "flags": [
        "been",
        "fave"
      ],
      "lat": 27.769794,
      "lng": -82.77049,
      "name": "Treasure Island, FL, USA"
    },
    {
      "city": "Pompano Beach",
      "county": "FL",
      "iso": "",
      "flags": [
        "been"
      ],
      "lat": 26.245348,
      "lng": -80.08701,
      "name": "Pompano Beach, FL, USA"
    },
    {
      "city": "Custer",
      "county": "SD",
      "iso": "",
      "flags": [
        "been"
      ],
      "lat": 43.764645,
      "lng": -103.60643,
      "name": "Custer, SD, USA"
    },
    {
      "city": "Houston",
      "county": "TX",
      "iso": "",
      "flags": [
        "been"
      ],
      "lat": 29.749317,
      "lng": -95.364365,
      "name": "Houston, TX, USA"
    },
    {
      "city": "Port Saint Joe",
      "county": "FL",
      "iso": "",
      "flags": [
        "been"
      ],
      "lat": 29.81228,
      "lng": -85.303024,
      "name": "Port Saint Joe, FL, USA"
    },
    {
      "city": "Vicksburg",
      "county": "MS",
      "iso": "",
      "flags": [
        "been"
      ],
      "lat": 32.35592,
      "lng": -90.87733,
      "name": "Vicksburg, MS, USA"
    },
    {
      "city": "New Orleans",
      "county": "LA",
      "iso": "",
      "flags": [
        "been"
      ],
      "lat": 29.947855,
      "lng": -90.07627,
      "name": "New Orleans, LA, USA"
    },
    {
      "city": "Jupiter",
      "county": "FL",
      "iso": "",
      "flags": [
        "been"
      ],
      "lat": 26.935602,
      "lng": -80.094444,
      "name": "Jupiter, FL, USA"
    },
    {
      "city": "Rosemont",
      "county": "IL",
      "iso": "",
      "flags": [
        "been"
      ],
      "lat": 41.99168,
      "lng": -87.87582,
      "name": "Rosemont, IL, USA"
    },
    {
      "city": "Asheville",
      "county": "NC",
      "iso": "",
      "flags": [
        "been"
      ],
      "lat": 35.597942,
      "lng": -82.55299,
      "name": "Asheville, NC, USA"
    },
    {
      "city": "Port Orange",
      "county": "FL",
      "iso": "",
      "flags": [
        "been"
      ],
      "lat": 29.133825,
      "lng": -80.992226,
      "name": "Port Orange, FL, USA"
    },
    {
      "city": "Seacrest Beach",
      "county": "FL",
      "iso": "",
      "flags": [
        "been"
      ],
      "lat": 30.281418,
      "lng": -86.02211,
      "name": "Seacrest Beach, FL, USA"
    },
    {
      "city": "Port Charlotte",
      "county": "FL",
      "iso": "",
      "flags": [
        "been"
      ],
      "lat": 26.97576,
      "lng": -82.102104,
      "name": "Port Charlotte, FL, USA"
    },
    {
      "city": "Fernandina Beach",
      "county": "FL",
      "iso": "",
      "flags": [
        "been"
      ],
      "lat": 30.594194,
      "lng": -81.44445,
      "name": "Fernandina Beach, FL, USA"
    },
    {
      "city": "Kansas City",
      "county": "KS",
      "iso": "",
      "flags": [
        "been"
      ],
      "lat": 39.09759,
      "lng": -94.58214,
      "name": "Kansas City, KS, USA"
    },
    {
      "city": "Starkville",
      "county": "MS",
      "iso": "",
      "flags": [
        "been"
      ],
      "lat": 33.44015,
      "lng": -88.819725,
      "name": "Starkville, MS, USA"
    },
    {
      "city": "Sochi",
      "county": "Russia",
      "iso": "RU",
      "flags": [
        "want"
      ],
      "lat": 43.594135,
      "lng": 39.72255,
      "name": "Sochi, Russia"
    },
    {
      "city": "El Yunque National Forest",
      "county": "Puerto Rico",
      "iso": "PR",
      "flags": [
        "been"
      ],
      "lat": 18.295135,
      "lng": -65.80003,
      "name": "El Yunque National Forest, Puerto Rico"
    },
    {
      "city": "Ponce",
      "county": "Puerto Rico",
      "iso": "PR",
      "flags": [
        "been"
      ],
      "lat": 17.966005,
      "lng": -66.614174,
      "name": "Ponce, Puerto Rico"
    },
    {
      "city": "San Juan",
      "county": "Puerto Rico",
      "iso": "PR",
      "flags": [
        "been"
      ],
      "lat": 18.466219,
      "lng": -66.10804,
      "name": "San Juan, Puerto Rico"
    },
    {
      "city": "Boone",
      "county": "NC",
      "iso": "",
      "flags": [
        "been"
      ],
      "lat": 36.216755,
      "lng": -81.68251,
      "name": "Boone, NC, USA"
    },
    {
      "city": "Columbia",
      "county": "MO",
      "iso": "",
      "flags": [
        "been"
      ],
      "lat": 38.946934,
      "lng": -92.29763,
      "name": "Columbia, MO, USA"
    },
    {
      "city": "Butte",
      "county": "MT",
      "iso": "",
      "flags": [
        "been"
      ],
      "lat": 46.006367,
      "lng": -112.5239,
      "name": "Butte, MT, USA"
    },
    {
      "city": "Newport",
      "county": "RI",
      "iso": "",
      "flags": [
        "been"
      ],
      "lat": 41.489246,
      "lng": -71.310036,
      "name": "Newport, RI, USA"
    },
    {
      "city": "Hot Springs",
      "county": "AR",
      "iso": "",
      "flags": [
        "been"
      ],
      "lat": 34.509796,
      "lng": -93.04969,
      "name": "Hot Springs, AR, USA"
    },
    {
      "city": "Rocky Top",
      "county": "TN",
      "iso": "",
      "flags": [
        "been"
      ],
      "lat": 36.221264,
      "lng": -84.15679,
      "name": "Rocky Top, TN, USA"
    },
    {
      "city": "Ochopee",
      "county": "FL",
      "iso": "",
      "flags": [
        "been"
      ],
      "lat": 25.90153,
      "lng": -81.30671,
      "name": "Ochopee, FL, USA"
    },
    {
      "city": "Carlsbad",
      "county": "CA",
      "iso": "",
      "flags": [
        "been"
      ],
      "lat": 33.121323,
      "lng": -117.32632,
      "name": "Carlsbad, CA, USA"
    },
    {
      "city": "New Smyrna Beach",
      "county": "FL",
      "iso": "",
      "flags": [
        "been"
      ],
      "lat": 29.04469,
      "lng": -80.93834,
      "name": "New Smyrna Beach, FL, USA"
    },
    {
      "city": "Carmel",
      "county": "CA",
      "iso": "",
      "flags": [
        "been"
      ],
      "lat": 36.555935,
      "lng": -121.92305,
      "name": "Carmel, CA, USA"
    },
    {
      "city": "Bismarck",
      "county": "ND",
      "iso": "",
      "flags": [
        "been"
      ],
      "lat": 46.806046,
      "lng": -100.78263,
      "name": "Bismarck, ND, USA"
    },
    {
      "city": "Homestead",
      "county": "FL",
      "iso": "",
      "flags": [
        "been"
      ],
      "lat": 25.469788,
      "lng": -80.47721,
      "name": "Homestead, FL, USA"
    },
    {
      "city": "Flagstaff",
      "county": "AZ",
      "iso": "",
      "flags": [
        "been"
      ],
      "lat": 35.197803,
      "lng": -111.64918,
      "name": "Flagstaff, AZ, USA"
    },
    {
      "city": "Dubuque",
      "county": "IA",
      "iso": "",
      "flags": [
        "been"
      ],
      "lat": 42.498207,
      "lng": -90.66519,
      "name": "Dubuque, IA, USA"
    },
    {
      "city": "Flagler Beach",
      "county": "FL",
      "iso": "",
      "flags": [
        "been"
      ],
      "lat": 29.480927,
      "lng": -81.12831,
      "name": "Flagler Beach, FL, USA"
    },
    {
      "city": "Pigeon Forge",
      "county": "TN",
      "iso": "",
      "flags": [
        "been"
      ],
      "lat": 35.789257,
      "lng": -83.553986,
      "name": "Pigeon Forge, TN, USA"
    },
    {
      "city": "West Hollywood",
      "county": "CA",
      "iso": "",
      "flags": [
        "been"
      ],
      "lat": 34.09267,
      "lng": -118.37093,
      "name": "West Hollywood, CA, USA"
    },
    {
      "city": "Clifton",
      "county": "SC",
      "iso": "",
      "flags": [
        "been"
      ],
      "lat": 34.9784,
      "lng": -81.82231,
      "name": "Clifton, SC, USA"
    },
    {
      "city": "Port Aransas",
      "county": "TX",
      "iso": "",
      "flags": [
        "been"
      ],
      "lat": 27.836327,
      "lng": -97.06133,
      "name": "Port Aransas, TX, USA"
    },
    {
      "city": "Navarre",
      "county": "FL",
      "iso": "",
      "flags": [
        "been"
      ],
      "lat": 30.40092,
      "lng": -86.86527,
      "name": "Navarre, FL, USA"
    },
    {
      "city": "Naples",
      "county": "FL",
      "iso": "",
      "flags": [
        "been"
      ],
      "lat": 26.138308,
      "lng": -81.79637,
      "name": "Naples, FL, USA"
    },
    {
      "city": "Buffalo",
      "county": "NY",
      "iso": "",
      "flags": [
        "been"
      ],
      "lat": 42.875916,
      "lng": -78.87546,
      "name": "Buffalo, NY, USA"
    },
    {
      "city": "Key West",
      "county": "FL",
      "iso": "",
      "flags": [
        "been"
      ],
      "lat": 24.56068,
      "lng": -81.79535,
      "name": "Key West, FL, USA"
    },
    {
      "city": "Crested Butte",
      "county": "CO",
      "iso": "",
      "flags": [
        "been"
      ],
      "lat": 38.86975,
      "lng": -106.9834,
      "name": "Crested Butte, CO, USA"
    },
    {
      "city": "Bristol",
      "county": "FL",
      "iso": "",
      "flags": [
        "been"
      ],
      "lat": 30.43214,
      "lng": -84.97575,
      "name": "Bristol, FL, USA"
    },
    {
      "city": "Key Largo",
      "county": "FL",
      "iso": "",
      "flags": [
        "been"
      ],
      "lat": 25.091,
      "lng": -80.44469,
      "name": "Key Largo, FL, USA"
    },
    {
      "city": "Fort Lauderdale",
      "county": "FL",
      "iso": "",
      "flags": [
        "been"
      ],
      "lat": 26.125828,
      "lng": -80.12983,
      "name": "Fort Lauderdale, FL, USA"
    },
    {
      "city": "Jaco",
      "county": "Costa Rica",
      "iso": "CR",
      "flags": [
        "been"
      ],
      "lat": 9.621047,
      "lng": -84.63681,
      "name": "Jaco, Costa Rica"
    }
  ]
}